rec_id,depname,altname,includes,cntrycd,country,stprov,latdeg,latmin,latsec,latitude,londeg,lonmin,lonsec,longitude,deptype,discdate,startdate,oreton,cugrd,zngrd,pbgrd,augrd,aggrd,stringer,comments,depage,agemy,ore_area,ore_a,ore_b,alter_area,alter_a,alter_b,geochem,geochem_a,geochem_b,geophys,geophys_a,geophys_b,cover,lithotect,postmindef,meta_grade,synminint,postminint,syndepctrl
571,Aarja,,,OMAN,Oman,,24,19,48,24.33,56,25,12,56.42,Mafic,1973,,3,2,0,0,0,0,yes,"Massive, stockwork. Surface gossan. Ophiolite.",Cretaceous,100,,0.12,0.06,,,,,,,,,,0,"Mafic setting in midoceanic ridge",yes,none,no,yes,stratigraphic
572,Abeshiro,,"Matsu, Daido, Hime, Sakura, Shin Hime, Kama",JAPN,Japan,Aomori,41,15,0,41.25,140,59,55,140.998611111111,Felsic,1909,1912,1.7,2.2,11.8,1,1.2,219,no,"Massive. Exposed at surface. Stratigraphy given for Sakura deposit.",Miocene,15,,0.41,0.28,,,,,,,,,,0,"Siliciclastic-felsic in mature epicontinental arc",no,,yes,no,stratigraphic
573,Adak-Lindskold,,"Adak, Lindskold",SWDN,Sweden,,65,5,0,65.0833333333333,17,47,0,17.7833333333333,Felsic,1930,1935,5.92,1.55,0,0,0.3,5,yes,"Massive, disseminated, and stockwork, large number of small orebodies.",Proterozoic,1950,0.0035,,,,,,,,,,,,,"Bimodal-felsic in epicontinental arc",,,,,
574,Afterthought,,,USCA,"United States",California,40,44,6,40.735,-122,-4,-4,-122.067777777778,Felsic,1862,1869,0.15,3.23,16.15,2.17,1,190,yes,"Massive elongate lenses, 0.15 km thickness, stringers below 5 orebodies, dissemination, 18 orebodies.","Late Permian",260,,0.21,0.18,,,,,,,,,,0,"Siliciclastic-felsic in mature epicontinental arc",yes,,,,"stratigraphic and shear zones"
575,Agrokipia,,,CYPS,Cyprus,,35,2,37,35.0436111111111,33,8,45,33.1458333333333,Mafic,1951,1951,1.42,1.7,1.09,0,0,0,yes,"Mostly stockwork, massive ore removed by erosion, gossan. A and B orebodies, displaced by fault. Ocean crust ophiolite, mid-ocean ridge axis.",Cretaceous,100,0.08,0.575,0.2,,,,,,,,,,0,"Mafic in midoceanic ridge",yes,,yes,no,"contact between Upper and Lower Pillow Lavas."
576,Aijala,Ajosniitty,,FNLD,Finland,Turku,60,11,31,60.1919444444444,23,21,58,23.3661111111111,Bimodal-Mafic,1681,1949,0.84,1.8,0.6,0.02,0.75,15,no,Massive.,Proterozoic,1800,,0.4,0.02,,,,,,,,,,0,"Bimodal-mafic in oceanic arc",yes,amphibolite,no,no,stratigraphic
577,Akarsen,,,TRKY,Turkey,Artvin,41,14,10,41.2361111111111,41,30,18,41.505,Felsic,1938,,,,,,,,no,"Massive, 0.02 km thickness. Reserves 4 million t @ 2.87% Cu, 2.3 g/t Au, 35 g/t Ag, open at depth.","Upper Cretaceous",80,,0.17,0.03,,,0.05,,,,,,,0,"Bimodal-felsic in epicontinental arc",yes,greenschist,,yes,
578,Akkoy,,,TRKY,Turkey,Giresun,40,50,56,40.8488888888889,38,18,35,38.3097222222222,Felsic,-2000,,1.88,0.47,2.86,0,0,0,yes,"Massive, stringer, stockwork, dissemination, 0.02 km thickness.","Upper Cretaceous",80,,0.2,0.05,,,,,,,,,,0,"Bimodal-felsic in epicontinental arc",yes,greenschist,,yes,
579,"Akulla East",,,SWDN,Sweden,,64,54,42,64.9116666666667,20,15,33,20.2591666666667,Felsic,,,1,1.7,0.07,0,2.1,14,,,Proterozoic,1950,,,,,,,,,,,,,,"Bimodal-felsic in epicontinental arc",,,,,stratigraphic
580,Albert,Capleton,"Albert, Capel, Walter, Wheal Betsey",CNQU,Canada,Quebec,45,19,21,45.3225,-71,-54,-43,-71.9119444444444,Felsic,1863,1866,0.54,3,0,0,0,0,no,"Massive, two pipe-shaped bodies. Felsic and mafic volcanic rocks about equal proportions. Capleton is 1200 m deep. Closed 1939.",Ordovician,588,,0.83,0.48,,,,,,,,,,0,"Bimodal-felsic in epicontinental arc",yes,greenschist,yes,yes,stratigraphic
581,Aldermac,,,CNQU,Canada,Quebec,48,13,7,48.2186111111111,-79,-13,-52,-79.2311111111111,Bimodal-Mafic,1924,1937,1.98,1.52,0,0,0.17,6.5,no,"Massive. North limb of syncline and faulting.",Archean,2698,,0.35,0.1,,,,,,,,,,9.1,"Bimodal-mafic in oceanic arc",yes,greenschist,yes,yes,stratigraphic
582,"Allard River",,,CNQU,Canada,Quebec,49,36,30,49.6083333333333,-77,-56,-6,-77.935,Bimodal-Mafic,1946,,0.45,0.75,0,0,0,0,yes,"Dissemination, 0.05 km thickness, pipe-like zone.",Archean,2720,,0.17,0.07,,,,,,,,,,,"Bimodal-mafic in oceanic arc",,greenschist,,,
583,"Almagrera-Lapilla-Nueva Almagrera","Tharsis, La Lapilla","Almagrera, Lapilla, Nueva Almagrera",SPAN,Spain,Huelva,37,34,20,37.5722222222222,-7,-5,-48,-7.09666666666667,Felsic,1965,n.d,,,,,,,yes,"Massive, stockwork. Epicontinental extensional rift basins. Stratigraphy given for Almagrera. Resource 15.5 million t @ 0.7% Cu, 0.7% Zn, 0.7% Pb, 0.7 g/t Au, 40 g/t Ag; Nueva Almagrera deposit open with depth.",Carboniferous,320,,,,,,,,,,"gravity high",1.0,0.8,0,"Siliciclastic-felsic in mature epicontinental arc",yes,"lower greenschist",yes,yes,stratigraphic
584,Ambelikou,,,CYPS,Cyprus,,35,6,37,35.1102777777778,32,47,16,32.7877777777778,Mafic,1954,1956,0.02,1,0,0,0,0,no,"Massive, stockwork. Gossan.",Cretaceous,100,,,,,,,,,,,,,0,"Mafic in midoceanic ridge",,,,,
585,"Amulet A",Waite-Amulet,"Amulet C, No. 4, B, D, E, Bluff, South Rusty Hill",CNQU,Canada,Quebec,48,18,24,48.3066666666667,-79,-4,-1,-79.0669444444444,Bimodal-Mafic,1925,1930,6.33,4.85,5.79,0,1.39,50.3,no,Massive.,Archean,2698,0.03,,,,,,,,,,,,0,"Bimodal-mafic in oceanic arc",yes,greenschist,yes,no,"contact between andesite and rhyolite"
586,"Amulet F",,"No. 5",CNQU,Canada,Quebec,48,19,0,48.3166666666667,-79,-4,-55,-79.0819444444444,Bimodal-Mafic,1929,1930,0.26,3.4,8.6,0,0.51,46.3,no,"Massive, 0.04 km thickness.",Archean,2698,,0.11,0.08,,,,,,,,,,38.1,"Bimodal-mafic in oceanic arc",yes,greenschist,no,yes,"contact between andesite flows"
587,Anayatak-Cakmakkaya,Murgul,"Anayatak, Cakmakkaya, Murgul, Cankara, Dzambul, Bognari",TRKY,Turkey,Artvin,41,14,29,41.2413888888889,41,34,42,41.5783333333333,Felsic,1000,1000,83.14,0.8,4,0,0.05,3.7,yes,"Massive, stringer, stockwork, dissemination, pyrite-chalcopyrite-quartz stockwork, 0.1 km thickness. Cangara, Sosweni, Satep orebodies. Lenses of coarse-grained gypsum 5 m thick and 60 m long occur in the hangingwall. Alteration area includes silicic, argillic, and phyllic.","Upper Cretaceous",80,0.72,1,0.7,,1.8,0.6,"Ti, Mn, REE strongly depleted in altered host rock, F, Cu and Au enriched.",1.8,1.0,,,,0,"Bimodal-felsic in epicontinental arc",yes,zeolite,,,stratigraphic
588,"Ana Yatak-Ergani",Ergani,"Ana Yatak, Ergani",TRKY,Turkey,Elazig,38,22,49,38.3802777777778,39,39,33,39.6591666666667,Mafic,-2000,-2000,24.1,2.94,0,0,1.1,18.7,yes,"Massive, dissemination, stringer. Ophiolite.","Upper Cretaceous",80,0.518,1,0.5,,,,,,,,,,0,"Mafic in midoceanic ridge",yes,greenschist,yes,yes,stratigraphic
589,"Anderson Lake",Eagle,,CNMN,Canada,Manitoba,54,51,37,54.8602777777778,-99,-59,-35,-99.9930555555556,Bimodal-Mafic,1963,1970,3.19,3.41,0.1,0,0.62,7.75,yes,"Massive, elongate lens, strike N65?E, dips 60?NW, plunges 55?NE. Top is 90 m below surface. 1220 m down plunge length, 10 m max. thickness at center, 150 m average strike length of which 120 m is ore. Stringer ore underlies the center and thickest part of lens. Island arc tholeiite.",Proterozoic,1800,,0.18,0.015,,0.25,0.07,,,,,,,90,"Bimodal-mafic in oceanic arc",yes,"upper amphibolite",no,yes,stratigraphic
590,Angelo,"Mt. Angelo",,AUWA,Australia,"Western Australia",-18,-26,-30,-18.4416666666667,127,29,20,127.488888888889,Bimodal-Mafic,1962,,0.51,2.21,0,0,0,0,no,Massive.,Archean-Proterozoic,2500,,,,,,,,,,,,,,"Bimodal-mafic in epicontinental arc",,greenschist,no,no,
591,Anna,Sulitjelma,,NRWY,Norway,,67,4,58,67.0827777777778,15,19,38,15.3272222222222,Bimodal-Mafic,>1900,n.d,0.02,2,0.5,0,0,0,no,"Massive, 0.001 km thickness. Marginal back-arc rift, ensimatic.",Ordovician,470,0.01,0.2,0.057,,,,,,,,,,,"Bimodal-mafic in oceanic arc",yes,amphibolite,,,stratigraphic
592,Antler,,,USAZ,"United States",Arizona,34,52,57,34.8825,-113,-58,-6,-113.968333333333,Bimodal-Mafic,1879,1916,,,,,,,no,"Minimum tonnage: 0.456 million t @ 2.9% Cu, 6.5% Zn, 2.5% Pb, 0.33 g/t Au, 39.4 g/t Ag, open at depth. Massive thin lens, 0.012 m thickness, 610 m strike length, 198 m depth (open). Surface gossans.",Proterozoic,1700,0.03,0.73,0.07,,,,"High Hg anomaly above orebody; Cu, Pb, Ag, Zn",,,magnetic,,,0,"Bimodal-mafic in epicontinental arc",yes,"greenschist, amphibolite, retrograde",no,yes,stratigraphic
593,Apliki,,,CYPS,Cyprus,,35,4,28,35.0744444444444,32,50,35,32.8430555555556,Mafic,1937,n.d,1.5,1.8,0,0,0,0,no,"Massive, stockwork. Surface gossan.",Cretaceous,100,,,,,,,,,,,,,0,"Mafic in midoceanic ridge",,,,,
594,Arctic,,,USAK,"United States",Alaska,67,10,18,67.1716666666667,-156,-22,-53,-156.381388888889,Felsic,1965,,37,4,5.5,0.8,0.62,47,yes,"Massive, semi-massive, 0.09 km thickness, multiple stacked lenses within 80 m stratigraphic interval. Three horizons are Main,Warm Creek and South, as irregular, tabular sheets. Footwall funnel-shaped chloritic alteration zone with stringers of pyrite-chalcopyrite, but no stockwork veins. Displaced continental margin, incipient intracontinental rift.",Devonian-Mississippian,360,,1.03,0.73,,0.76,0.45,,,,,,,0,"Siliciclastic-felsic in mature epicontinental arc",yes,"greenschist, glaucophane schist",yes,yes,stratigraphic
595,Arinteiro,,"Touro-El Pino",SPAN,Spain,Pontevedra,42,53,5,42.8847222222222,-8,-19,-23,-8.32305555555556,Mafic,1969,1974,11,0.9,0,0,0,0,yes,"Disseminated ore thought to be stockwork. Ore zone flanked by 10 m of garnetiferous amphibolite, a good source for local exploration.",Silurian,430,,1.4,0.3,,,,,,,,,,,"Mafic in primitive oceanic backarc",yes,amphibolite,no,yes,stratigraphic
596,"Armstrong A",,,CNNB,Canada,"New Brunswick",47,36,0,47.6,-66,-2,-25,-66.0402777777778,Felsic,1956,,3.18,0.29,2.29,0.42,0.69,2.4,no,"Massive, 0.02 km thickness. Overturned beds. Caldera, island arc rift basin.",Ordovician,445,,0.24,0.14,,,,,,,,,,10,"Siliciclastic-felsic in mature epicontinental arc",yes,greenschist,yes,no,stratigraphic
597,Asoren,,,NRWY,Norway,,61,43,0,61.7166666666667,9,22,0,9.36666666666667,Bimodal-Mafic,n.d,n.d,0.7,1.43,0,0,0,0,no,"Dissemination ruler shape, 8.1% S, <0.1% Zn. Marginal back-arc rift.",Cambrian-Ordovician,500,,,,,,,,,,,,,,"Bimodal-mafic in epicontinental arc",yes,,,,stratigraphic
598,Asen-East,,,SWDN,Sweden,,64,0,0,64,19,0,0,19,Felsic,<1949,1940s,0.18,1.1,0.8,0.2,0.61,31,no,Massive.,Proterozoic,1950,,,,,,,,,,,,,,"Bimodal-felsic in epicontinental arc",,,,,stratigraphic
599,Asen-West,,,SWDN,Sweden,,64,0,0,64,19,0,0,19,Felsic,<1949,1940s,0.48,1.3,1.9,0.2,0.71,52,no,Massive.,Proterozoic,1950,,,,,,,,,,,,,,"Bimodal-felsic in epicontinental arc",,,,,stratigraphic
600,"Ash Shizm",,,SAAR,"Saudi Arabia",,26,27,18,26.455,37,32,18,37.5383333333333,Bimodal-Mafic,1965,,1,2.92,0.74,0.14,0,18,yes,"Funnel-shaped stockwork could be the feeder zone with missing overlying massive sulfide body.  Tholeiitic to calc-alkaline island arc.",Proterozoic,800,,0.3,0.3,,,,,,,,,,0,"Bimodal-mafic in epicontinental arc",yes,,yes,yes,stratigraphic
601,"Austin Brook",Nipisiguit,,CNNB,Canada,"New Brunswick",47,23,48,47.3966666666667,-65,-49,-33,-65.8258333333333,Felsic,"1907 (1953)","1907 (1953)",0.9,0.1,2.93,1.86,0,34,no,"Massive. Caldera, island arc rift basin. Nipisiguit iron deposit was discovered in 1907, massive sulfides recognized in 1953.",Ordovician,445,,,,,,,,,,,,,0,"Siliciclastic-felsic in mature epicontinental arc",yes,greenschist,yes,yes,stratigraphic
602,Avoca,,,IRLD,Ireland,,52,51,0,52.85,-6,-9,0,-6.15,Felsic,1720,1720,27.25,0.84,0,0,0,0,yes,"Massive, stringer, sheet-like bodies. Pond Lode is exposed at surface. East and West deposits about 500 m apart, includes North Lode, South Lode (1000 m long, 20 m wide, 300 m depth), Pond Lode (750 m long, 750 m depth), Tigroney, Cronebane (600 m long), Connary, Kilmacoo. Ensialic island arc (calc-alkaline island arc affinity).",Ordovician,455,,2.25,0.1,,,,,,,,,,0,"Bimodal-felsic in epicontinental arc",yes,greenschist,yes,yes,stratigraphic
603,Ayala,,,PLPN,Philippines,Zamboanga,7,17,0,7.28333333333333,122,8,0,122.133333333333,Bimodal-Mafic,,1974,16.17,0.18,1.6,1,0,0,,Vein.,Eocene-Pliocene,20,,,,,,,,,,,,,,"Bimodal-mafic in oceanic arc",,,,yes,
604,Aznacollar,,,SPAN,Spain,Sevilla,37,31,1,37.5169444444444,-6,-14,-55,-6.24861111111111,Felsic,1969,1979,90,0.51,1.8,0.85,0.48,37,yes,"Massive, stockwork, 0.05 km thickness. Back-arc basin or intra-continental rift basin.","Upper Devonian-Lower Carboniferous",340,,1.2,0.4,,,,,,,,,,0,"Siliciclastic-felsic in mature epicontinental arc",yes,"lower greenschist",yes,yes,stratigraphic
605,Bagacay,,Gila-Gila,PLPN,Philippines,"West Samar",11,47,42,11.795,125,16,6,125.268333333333,Bimodal-Mafic,1954,1956,5.59,3,2.3,0,0.25,17,yes,"Massive, dissemination, several lenses, gently dipping, largest (Guila Guila) 500 m long, 50 m thick. Gossan at surface.",Eocene-Pliocene,20,,2.4,0.5,,,,,,,,,,0,"Bimodal-mafic in oceanic arc",no,,no,yes,stratigraphic
606,Bailadores,,,VNZL,Venezuela,Merida,8,11,0,8.18333333333333,-71,-50,0,-71.8333333333333,Felsic,1700s,1876,,,,,,,no,"Minimum tonnage: 3.5 million t @ 2.0% Cu, 17% Zn, 6% Pb, 68 g/t Ag, open at depth. Massive to semi-massive in two layers, separated by a few meters of ash tuff, 1150 m strike length, 70-250 m down-dip extent, 14.9 m thick (lower horizon), 10.8 m (upper horizon), open along strike and depth; banded layers; dissemination in footwall and hanging wall,stringer chalcopyrite-pyrite in footwall, but no stringer zone yet defined. SW end of deposit offset 150 m by NW-trending left-lateral fault.",Devonian-Carboniferous,330,,,,,,,"Depleted Na2O and CaO in footwall",,,,,,,"Siliciclastic-felsic in mature epicontinental arc",yes,,no,yes,stratigraphic
607,Balaklala,"Windy Camp",,USCA,"United States",California,40,43,33,40.7258333333333,-122,-29,-59,-122.499722222222,Felsic,>1890,1890s,2.1,2.8,1.3,0,0.96,34,no,"Massive elongate basin-shaped lens.",Devonian,390,,,,,,,,,,,,,0,"Siliciclastic-felsic in mature epicontinental arc",yes,,,,stratigraphic
608,"Bald Mountain",,"CL Zone",USME,"United States",Maine,46,44,18,46.7383333333333,-68,-44,0,-68.7333333333333,Bimodal-Mafic,1977,,33,1.4,1.2,0,0,0,yes,"Massive, dissemination. Fault separates orebodies into a main zone and a smaller western zone. Extends to 250 m depth. CL Zone is 400 m to the north and along strike. Underlain by chloritic stringer zone. Ensialic primitive island arc rift basin, calc-alkaline rhyolite, tholeiitic basalt. Stratigraphy given for core CL-36.",Ordovician,450,0.01,1.8,0.08,,,,,,,,,,0,"Bimodal-mafic in epicontinental arc",no,"sub-greenschist (prehnite-pumpellyite)",yes,yes,"stratigraphic contact, synvolcanic graben"
609,Bama,,,SPAN,Spain,Pontevedra,42,52,40,42.8777777777778,-8,-20,-57,-8.34916666666667,Mafic,1969,,20,0.55,0,0,0,0,yes,"Massive, dissemination. Disseminated ore thought to be stockwork. Ore zone flanked by 10 m of garnetiferous amphibolite, a good source for local exploration.",Silurian,430,,,,,,,,,,,,,,"Mafic in primitive oceanic backarc",yes,amphibolite,no,yes,stratigraphic
610,Bandagan,"Bandegan, Bandgan",,PKSN,Pakistan,,28,50,35,28.8430555555556,65,3,31,65.0586111111111,,<1964,,,,,,,,yes,"Massive, stringer. Resource 0.029 million t @ 0.8% Cu, 0.7 g/t Au, 5 g/t Ag, open at depth.",Eocene,50,0.0005,,,,,,,,,,,,,unclassified,,,,,
611,Barlo,,,PLPN,Philippines,Pangasinan,15,59,9,15.9858333333333,119,57,18,119.955,Mafic,1961,1962,2.3,1.9,2.22,0,0.093,4,,"Massive. Limonitic gossan at surface. Accreted oceanic crust.",Eocene,50,,0.8,0.3,,,,,,,,,,0,"Mafic in primitive oceanic backarc",yes,greenschist,no,no,"gouge zone"
612,Barrett,,,USME,"United States",Maine,44,58,8,44.9688888888889,-67,-13,-37,-67.2269444444444,Bimodal-Mafic,,,0.4,1.75,2,0,7.9,20.6,yes,"Dissemination, breccia-fillings, irregular stringer. Extensional rift basin in post-arc setting.",Silurian,430,,,,,,,,,,,,,,"Bimodal-mafic in epicontinental arc",,,,,stratigraphic
613,"Barrington Lake",,,CNMN,Canada,Manitoba,56,57,42,56.9616666666667,-100,-17,-42,-100.295,Bimodal-Mafic,1972,,,,,,,,no,"Massive, 0.00459 km thickness. Resource 0.227 million t @ 2.5% Cu, not fully explored.",Proterozoic,1800,,0.11,0.09,,,,,,,,,,,"Bimodal-mafic in oceanic arc",,,,,
615,Baskoy,,,TRKY,Turkey,Artvin,41,18,47,41.3130555555556,41,30,59,41.5163888888889,Felsic,,,0.09,3.18,1.24,0,0,0,yes,"Massive and veins. Veins are fissure-filled perpendicular to an anticlinal fold axis, 1 mm to 3 cm wide, spaced 3 cm to 50 cm apart, in interbedded sandstone.","Upper Cretaceous",80,,,,,,,,,,,,,,"Bimodal-felsic in epicontinental arc",yes,,,yes,
616,"Bathurst Norsemines A-Jo Zones","Hackett River","Main A, Jo",CNNT,Canada,"Northwest Territory",65,54,54,65.915,-108,-21,-47,-108.363055555556,Felsic,1956,,5.56,0.38,11.22,1.24,0.51,190,yes,"Massive, dissemination, stockwork. Surface gossan. Overturned sequence in northwest trending synclinorium, plunging southeast. Calc-alkaline.",Archean,3200,,0.975,0.3,,,,,,,,,,0,"Bimodal-felsic in epicontinental arc",yes,amphibolite,no,yes,stratigraphic
617,Bawdwin,,,MYAN,"Union of Myanmar","Shan State, Tawng Peng",23,7,0,23.1166666666667,97,18,0,97.3,Felsic,"1400s (1891)",1400s,34.1,0.48,13,0.09,0.06,232,yes,"Massive, vein or lens, interlacing seams, forming small stockworks, impregnation of the country rock. Chinaman Lode is the main ore body extends to depths of at least 198 m. Surface gossans. Mining by the Chinese ended about 1868, and redeveloped by the Europeans starting in 1901. Possible rifted continental shelf.",Cambrian,510,,0.9,0.03,,0.365,0.03,,,,,,,0,"Siliciclastic-felsic in mature epicontinental arc",yes,"lower greenschist",no,no,stratigraphic
618,Bayda,,,OMAN,Oman,,24,33,0,24.55,56,22,48,56.38,Mafic,1973,,1,2,0,0,0,0,yes,"Massive, stockwork. Surface gossan. Ophiolite.",Cretaceous,100,,,,,,,,,,,,,,"Mafic in midoceanic ridge",yes,,no,yes,"contact of pillow basalts"
619,Beatson,Latouche,,USAK,"United States",Alaska,60,2,47,60.0463888888889,-147,-54,0,-147.9,Mafic,1897,1903,4.5,1.7,0,0,0,9.3,no,"Massive, disseminations, 0.12 km thickness, 2 larger bodies, several smaller bodies. Nearly 5 million t ore produced (Koski and others, 2008).",Tertiary,20,,0.31,0.15,,,,"Zn, Cu, Pb",,,,,,0,"Pelite-mafic in mature oceanic backarc",yes,,no,no,"stratigraphic and NE striking fault"
620,"Bedford Hill",,,CNQU,Canada,Quebec,48,18,42,48.3116666666667,-79,-6,-36,-79.11,Bimodal-Mafic,1926,,0.2,1.5,0,0,0.69,0,yes,"Massive, dissemination, stockwork.",Archean,2700,,,,,,,,,,,,,,"Bimodal-mafic in oceanic arc",yes,greenschist,no,yes,stratigraphic
621,"Bell Allard South",,,CNQU,Canada,Quebec,49,41,23,49.6897222222222,-77,-41,-39,-77.6941666666667,Bimodal-Mafic,1958,1968,0.23,1.35,9.3,0,0.2,34.3,yes,"Massive, stockwork, dissemination.",Archean,2720,,,,,,,,,,,,,18,"Bimodal-mafic in oceanic arc",yes,"lower greenschist",no,yes,stratigraphic
622,"Bell Channel",,,CNQU,Canada,Quebec,49,46,27,49.7741666666667,-77,-37,-7,-77.6186111111111,Bimodal-Mafic,1957,1979,0.08,1.95,0.6,0,0,0,yes,"Massive, dissemination, stringer.",Archean,2600,,,,,,,,,,,,,,"Bimodal-mafic in oceanic arc",yes,amphibolite,no,yes,stratigraphic
623,"Betts Cove",,,CNNF,Canada,Newfoundland,49,48,42,49.8116666666667,-55,-48,-24,-55.8066666666667,Mafic,1874,1875,0.12,10,5,0,0.92,27,yes,"Massive (pyrite-chalcopyrite-sphalerite), dissemination (pyrite), stockwork (quartz-pyrite), stringer (pyrite-chalcopyrite). Some mineralization remobilized into faults. Ophiolite, mid-ocean ridge axis or back-arc rift (arc tholeiitic affinity).",Ordovician,488,,,,,,,"Enriched Fe, Cu, Zn, Al2O3/TiO3; depleted K, Ca, Na, TiO2, Zr, Y, P, REE",,,"spontaneous polarization",0.35,0.05,0,"Mafic in primitive oceanic backarc",yes,greenschist,yes,,"contact between sheeted dikes and pillow basalt"
624,"Bidjovagge (A)",,,NRWY,Norway,,69,17,22,69.2894444444444,22,29,7,22.4852777777778,Bimodal-Mafic,1950,,0.4,2,0,0,3.98,0,no,"Massive, dissemination.",Proterozoic,1500,,,,,,,,,,,,,,"Bimodal-mafic in epicontinental arc",yes,,,,stratigraphic
625,"Bidjovagge (B)",,,NRWY,Norway,,69,17,49,69.2969444444444,22,28,59,22.4830555555556,Bimodal-Mafic,1950,,0.3,1.83,0,0,0,0,no,"Massive, dissemination.",Proterozoic,1500,,,,,,,,,,,,,,"Bimodal-mafic in epicontinental arc",yes,,,,stratigraphic
626,"Bidjovagge (C)",,,NRWY,Norway,,69,16,20,69.2722222222222,22,29,10,22.4861111111111,Bimodal-Mafic,1950,1970,2.32,1.84,2,0.4,0,0,no,"Massive, dissemination.",Proterozoic,1500,,,,,,,,,,,,,,"Bimodal-mafic in epicontinental arc",yes,,,,stratigraphic
627,"Bidjovagge (D)",,,NRWY,Norway,,69,17,6,69.285,22,29,16,22.4877777777778,Bimodal-Mafic,1950,n.d,0.56,1.84,0,0,0,0,no,"Massive, dissemination.",Proterozoic,1500,,,,,,,,,,,,,,"Bimodal-mafic in epicontinental arc",yes,,,,stratigraphic
628,"Big Bend",,"Evening Star, Pinkston",USCA,"United States",California,39,41,19,39.6886111111111,-121,-25,-55,-121.431944444444,Felsic,1942,1942,0.05,1.14,10.7,0.2,1.54,41.4,no,"Massive, 0.01 km thickness, lenticular. Overturned west limb of anticline.",Jurassic,170,,0.08,0.04,,,,,,,,,,0,"Siliciclastic-felsic in mature epicontinental arc",yes,greenschist,,,stratigraphic
629,"Big Hill",,,USME,"United States",Maine,44,57,56,44.9655555555556,-67,-13,-21,-67.2225,Bimodal-Mafic,1906,,0.75,0.13,3,1,0,147.4,yes,"Dissemination, breccia-fillings, irregular stringer. Extensional rift basin in post-arc setting.",Silurian,430,,,,,,,,,,,,,,"Bimodal-mafic in epicontinental arc",,greenschist,,,
630,"Big Mike",,,USNV,"United States",Nevada,40,32,35,40.5430555555556,-117,-33,-37,-117.560277777778,Mafic,1930s,1970,0.1,10,0,0,0,0,yes,"Massive len (pyrite-chalcopyrite-sphalerite), 0.015 km thickness. Stringer of veinlets (quartz-pyrite-carbonate-sericite-chalcopyrite-sphalerite) in footwall and hangingwall. Rift ocean basin ophiolite.",Pennsylvanian-Permian,300,,0.076,0.049,,,,,,,,,,0,"Mafic in primitive oceanic backarc",yes,"lower greenschist",no,yes,stratigraphic
631,Binghampton,"Copper Queen",,USAZ,"United States",Arizona,34,27,22,34.4561111111111,-112,-11,-36,-112.193333333333,Felsic,,1916,0.36,3,0,0,1.71,68.6,no,"Massive, dissemination. 3 ore shoots. Copper Queen is 300 m to the southeast. Surface gossans.",Proterozoic,1640,0.0001,,0.003,,,,"High Hg anomaly above orebodies.",,,,,,0,"Siliciclastic-felsic in mature epicontinental arc",yes,"lower greenschist",,,"stratigraphic, fault zone"
632,"Birch Lake (Main Shear Zone)",,,CNSK,Canada,Saskatchewan,54,39,41,54.6613888888889,-102,-1,-58,-102.032777777778,Bimodal-Mafic,1949,1957,0.27,6.2,0,0,0.14,4.1,no,"Massive tabular lenses in shear zone, disseminations, veinlets. 3 orebodies: Main Shear Zone,  South Pyrite Zone 1,200 m from Main Shear Zone. North Zone is 1,500 m from Main Shear Zone. Juvenile volcanic arc.",Proterozoic,1800,,0.1,0.002,,,,"Bedrock Cu 200 ppm",0.6,0.3,,,,0,"Bimodal-mafic in oceanic arc",yes,greenschist,no,yes,"shear zone contact between two andesite flows, matrix of agglomerate."
633,Bjorkasen,"Hengmalmen, Liggmalmen",,NRWY,Norway,,68,19,56,68.3322222222222,16,48,27,16.8075,Bimodal-Mafic,<1915,1915,6,0.45,1,0,0,0,no,"Massive, 2 lenses (plates) separated by 30 m of schist. Ensimatic.",Ordovician,470,0.000699,,,,,,,,,,,,,"Bimodal-mafic in oceanic arc",,amphibolite,,,stratigraphic
634,Bjurfors,,,SWDN,Sweden,,65,0,26,65.0072222222222,19,36,40,19.6111111111111,Felsic,,1940,0.25,2.65,0.1,0,0.2,9,yes,"Massive, stringer, dissemination, 0.03 km thickness.",Proterozoic,1950,,0.19,0.05,,,,,,,,,,,"Bimodal-felsic in epicontinental arc",yes,amphibolite,no,yes,"stratigraphic contact"
635,Bjurliden,,,SWDN,Sweden,,64,59,45,64.9958333333333,19,41,14,19.6872222222222,Felsic,<1939,,0.1,0.1,3.7,0.2,0.2,40,yes,"Massive, dissemination.",Proterozoic,1950,0.000299,,,,,,,,,,,,,"Bimodal-felsic in epicontinental arc",yes,amphibolite,no,yes,"stratigraphic contact"
636,Bjurtrask,,,SWDN,Sweden,,64,59,33,64.9925,19,43,55,19.7319444444444,Felsic,<1939,,0.02,3.5,6.6,0,1.28,20,yes,"Massive, dissemination.",Proterozoic,1950,0.0001,0.11,0.03,,0.5,0.18,,,,,,,,"Bimodal-felsic in epicontinental arc",yes,amphibolite,no,yes,stratigraphic
637,"Blue Ledge",,,USCA,"United States",California,41,48,57,41.8158333333333,-123,-5,-19,-123.088611111111,Felsic,1898,1917,0.18,4.1,2,0,4.3,187,no,"Massive lenses.",Mesozoic,160,0.0005,0.45,0.0015,,,,,,,,,,0,"Siliciclastic-felsic in mature epicontinental arc",yes,greenschist,no,no,stratigraphic
638,"Blue Moon",,"Blue Cloud, Red Cloud, Porcupine, American Eagle",USCA,"United States",California,37,33,58,37.5661111111111,-120,-15,-20,-120.255555555556,Felsic,>1930,1943,0.11,0.36,12.5,0.45,2.09,123,yes,"Massive tabular banded, pyrite stringer, dissemination.",Jurassic,170,0.0015,,,,0.853,0.09,,,,,,,0,"Siliciclastic-felsic in mature epicontinental arc",yes,greenschist,yes,no,stratigraphic
639,Bodennec,,,FRNC,France,,48,28,0,48.4666666666667,3,38,0,3.63333333333333,Bimodal-Mafic,1965,<1980,7,0.58,1.5,0.92,0,30,no,"Massive, several horizons in 31 m of rhyolite tuff, shale, and spilite. Lescuyer and others (1998) believes this deposit is a stratabound sulfide impregnation formed during the Late Devonian (early Visean).","Early Devonian",400,0.05,,,,,,,,,,,,,"Bimodal-mafic in epicontinental arc",yes,greenschist,,yes,stratigraphic
640,Boliden,,,SWDN,Sweden,,64,52,20,64.8722222222222,20,22,44,20.3788888888889,Felsic,1924,1925,8.3,1.4,0.9,0.3,15.5,50,no,"Massive. 2 bodies.",Proterozoic,1950,0.02,0.6,0.04,,1.6,0.25,"Enriched Mg, K, Al, Ti, S, F; depleted Na, Ca, Fe",,,,,,,"Bimodal-felsic in epicontinental arc",yes,,yes,no,stratigraphic
641,Bomber,"Cook Lake",,CNMN,Canada,Manitoba,54,51,40,54.8611111111111,-100,-10,-58,-100.182777777778,Bimodal-Mafic,1954,,0.68,0.04,1,0,0.09,7.75,no,"Massive tabular. Extends down to 243 m depth.",Proterozoic,1800,0.11,0.55,0.002,,,,,,,,,,,"Bimodal-mafic in oceanic arc",yes,,,,
642,Bonanza,,,CNBC,Canada,"British Columbia",55,23,33,55.3925,-129,-51,-4,-129.851111111111,Mafic,1900,1929,0.88,1.88,0,0,0.1,10,no,"Massive, disseminated, flatten cylindrical body. Galley and others (2007) classified this as bimodal-felsic, but the volcanics are mafic with associated marine sediments.",Triassic,240,,0.805,0.06,,,,,,,,,,,"Pelite-mafic in mature oceanic backarc",yes,greenschist,,,"shear zone"
643,Bongbongan,,,PLPN,Philippines,Antique,10,50,30,10.8416666666667,122,1,41,122.028055555556,Mafic,1933,1943,0.09,1.18,0,0,0,0,no,"Massive, 3 lenticular orebodies, roughly crescent in plan. Limonitic gossan at surface. Accreted ocean crust in either forearc or backarc setting.",Eocene,50,0.000199,0.32,0.005,,,,,,,,,,0,"Mafic in primitive oceanic backarc",yes,"greenschist, amphibolite",no,yes,"stratigraphic contact"
644,Bossmo,"Bosmo, Basmo",,NRWY,Norway,,66,19,38,66.3272222222222,14,4,41,14.0780555555556,Bimodal-Mafic,1894,1894,2,0.42,0.4,0,0,0,no,"Massive, ruler shape, 49.2% S. Ensialic, intraplate incipient rift.",Ordovician,470,,,,,,,,,,,,,,"Bimodal-mafic in epicontinental arc",yes,amphibolite,,,stratigraphic
645,Britannia,"No. 8, No. 10, Fairview, Empress, Victoria, Bluff, No. 5, 040",,CNBC,Canada,"British Columbia",49,36,40,49.6111111111111,-123,-8,-30,-123.141666666667,Felsic,1888,1905,51.3,1.1,0.65,0.03,0.29,3.34,yes,"Massive lenses and sheets, stringer, dissemination. 8 major ore zones. Remobilization.","Jurassic or Cretaceous",150,0.04,0.4,0.25,,,,,,,,,,0,"Siliciclastic-felsic in mature epicontinental arc",yes,"lower greenschist",yes,yes,stratigraphic
646,Brompton,,,CNQU,Canada,Quebec,45,28,48,45.48,-72,-6,-30,-72.1083333333333,Bimodal-Mafic,1960,,0.64,1.7,0,0,0,0,no,Massive.,Cambrian-Ordovician,500,,,,,,,,,,,,,,"Bimodal-mafic in oceanic arc",,,,,stratigraphic
647,Bruce,,"Old Dick",USAZ,"United States",Arizona,34,32,47,34.5463888888889,-113,-13,-55,-113.231944444444,Felsic,1882,1943,1.43,3.6,12.1,0,0.07,8.2,yes,"Massive tabular bodies. Minor Cu-rich stringer in footwall. Remobilization. Overturned homoclinal sequence. Surface gossan at Old Dick. Island arc tholeiitic. Bimodal volcanic sequence reported but not evident.",Proterozoic,1700,0.03,,,,,,"Hg anomalies above orebodies",,,,,,0,"Siliciclastic-felsic in mature epicontinental arc",yes,"lower amphibolite",yes,yes,"andesite-rhyolite contact"
648,"Brunswick No. 12",,,CNNB,Canada,"New Brunswick",47,28,33,47.4758333333333,-65,-53,-20,-65.8888888888889,Felsic,1953,1964,106.6,0.3,9.12,3.77,0.5,93.7,no,"Massive lenticular mass, stockwork of pyrite-pyrrhotite-chalcopyrite, dissemination of pyrite-sericite-chlorite, 0.06 km thickness. Main, West, East, V-2 ore zones. Ensialic island arc rift basin.",Ordovician,445,,0.97,0.61,,,,"Footwall: Mg and K enriched, Cl, Na, F depleted",,,,,,9,"Siliciclastic-felsic in mature epicontinental arc",yes,"lower greenschist",no,yes,stratigraphic
649,"Brunswick No. 6",,,CNNB,Canada,"New Brunswick",47,24,37,47.4102777777778,-65,-49,-12,-65.82,Felsic,1952,1966,12.5,0.37,5.61,2.21,0,77.4,yes,"Massive tabular, stringer of disseminated pyrite-chlorite-sericite, 0.03 km thickness. Footwall crops out. Ensialic island arc rift basin.",Ordovician,445,,0.365,0.12,,,,,,,,,,0,"Siliciclastic-felsic in mature epicontinental arc",yes,"lower greenschist",yes,yes,stratigraphic
650,"Buchans (Lucky Strike-Rothermere)",,"Lucky Strike, Rothermere, Two Level",CNNF,Canada,Newfoundland,48,49,25,48.8236111111111,-56,-52,0,-56.8666666666667,Felsic,1926,1931,9.07,1.3,16.3,8.2,1.7,116.6,yes,"Massive, dissemination, stringer. Mature island arc (calc-alkaline).",Ordovician-Silurian,430,,,,,,,,,,,,,1.5,"Siliciclastic-felsic in mature epicontinental arc",yes,sub-greenschist,yes,,"stratigraphic, depressions"
651,"Buchans (McLean)",,McLean,CNNF,Canada,Newfoundland,48,49,55,48.8319444444444,-56,-53,-3,-56.8841666666667,Felsic,1950,1959,3.77,1.29,14.5,8.4,1.37,120,yes,"Massive, dissemination, stringer. Unknown depth below surface. Mature island arc (calc-alkaline).",Ordovician-Silurian,430,,,,,,,,,,,,,1,"Siliciclastic-felsic in mature epicontinental arc",yes,sub-greenschist,yes,,"stratigraphic, depression"
652,"Buchans (Old Buchan-Oriental)",,"Old Buchans, Oriental",CNNF,Canada,Newfoundland,48,49,30,48.825,-56,-50,-15,-56.8375,Felsic,1905,1928,2.59,1.4,17,9.3,2.4,140.5,yes,"Massive, dissemination, stringer. Mature island arc (calc-alkaline).",Ordovician-Silurian,430,,,,,,,,,,,,,0,"Siliciclastic-felsic in mature epicontinental arc",yes,sub-greenschist,yes,,stratigraphic
653,"Bully Hill-Rising Star",,"Bully Hill, Rising Star",USCA,"United States",California,40,48,1,40.8002777777778,-122,-12,-13,-122.203611111111,Felsic,1899,1901,0.62,3.8,3.1,0,1.98,130,no,"Massive lenticular masses along shear zones.","Late Permian",260,0.02,0.09,0.09,,,,,,,,,,0,"Siliciclastic-felsic in mature epicontinental arc",yes,,,,"stratigraphic, shear zones"
654,Bursi,Sulitjelma,,NRWY,Norway,,67,9,0,67.15,16,0,9,16.0025,Bimodal-Mafic,>1890,n.d,1.5,1.8,0.5,0.04,0,5.4,no,"Massive elongate sheet, dissemination, 0.002 km thickness. Marginal back-arc rift, ensimatic.",Ordovician,470,0.11,1.82,0.25,,,,,,,,,,,"Bimodal-mafic in oceanic arc",yes,amphibolite,,,stratigraphic
655,Campanario,,,SPAN,Spain,Huelva,37,32,26,37.5405555555556,-6,-49,-38,-6.82722222222222,Felsic,<1875,1876,0.91,0.97,2.6,2,0,0,yes,"Dissemination, stockwork. Epicontinental extensional rift basins.","Upper Devonian-Lower Carboniferous",340,0.002,0.5,0.05,,,,,,,,,,0,"Siliciclastic-felsic in mature epicontinental arc",yes,"lower greenschist",yes,,
656,"Canadian Jamieson",,,CNON,Canada,Ontario,48,32,7,48.5352777777778,-81,-33,-29,-81.5580555555556,Bimodal-Mafic,1964,1966,0.74,2.44,4.22,0,0.27,27,no,"Massive lenses, 3 zones. From surface down to 167 m depth. Tholeiitic andesite and basalt and high-silica rhyolite.",Archean,2707,,,,,,,,,,,,,0,"Bimodal-mafic in oceanic arc",yes,greenschist,,yes,"flow contact"
657,"Canoe Landing",,,CNNB,Canada,"New Brunswick",47,25,33,47.4258333333333,-66,-6,-8,-66.1022222222222,Felsic,1950,,,,,,,,no,"Massive, thin sheet, 1.2 km strike length, 9 m maximum thickness, down-dip length at least 925 m (open at depth).Thomas (2003) gives 22.8 million t with no reported grades. Smaller figure with grades: 5.4 million t @ 0.5% Cu, 1.5% Zn, 0.5% Pb, 1.4 g/t Au, 51 g/t Ag.",Ordovician,445,,1.2,0.21,,,,,,,,,,20,"Siliciclastic-felsic in mature epicontinental arc",yes,greenschist,yes,yes,stratigraphic
658,Captain,,,CNNB,Canada,"New Brunswick",47,17,0,47.2833333333333,-65,-52,-38,-65.8772222222222,Felsic,1956,,0.73,1.15,0,0,0.58,1.09,yes,"Massive, dissemination, 0.02 km thickness. 7.6 m glacial till covers deposit.",Ordovician,445,,0.24,0.15,,,,"Enrichment of Fe, Cu, Zn, Pb, Co, S, minor enrichment of Ag, Au, Bi, Ni, Sb, Te, Sn",,,,,,7.6,"Siliciclastic-felsic in mature epicontinental arc",yes,greenschist,no,yes,"replacement along contact"
659,"Captains Flat","Lake George",,AUNS,Australia,"New South Wales",-35,-35,-23,-35.5897222222222,149,26,35,149.443055555556,Felsic,1874,1882,4.5,0.67,10,6,1.6,54,yes,"Massive lenticular, 0.11 km thickness, dissemination. 3 orebodies: Elliots, Central, and Keatings. Continental margin rift.",Silurian,430,,1.3,1,,3,1.1,,,,,,,0,"Siliciclastic-felsic in mature epicontinental arc",yes,"lower greenschist",no,yes,contact
660,Carawison,,,PLPN,Philippines,Antique,10,51,34,10.8594444444444,122,2,49,122.046944444444,Mafic,1842,1935,0.17,2.8,0,0,0,0,no,"Massive. 35.98% S. Limonitic gossan at surface. Accreted ocean crust in forearc or backarc setting.",Eocene,50,0.000697,0.07,0.04,,,,,,,,,,0,"Mafic in primitive oceanic backarc",yes,"greenschist, amphibolite",no,yes,stratigraphic
661,Caribou,Restigouche,,CNNB,Canada,"New Brunswick",47,33,41,47.5613888888889,-66,-17,-50,-66.2972222222222,Felsic,1955,1970,45.1,0.47,4.48,1.7,1.37,58.6,no,"Six massive en echelon tabular bodies, 0.04 km thickness. dissemination in footwall. Gossan contains Au and Ag. Ore Zone Unit. Ensialic island arc rift basin. In 1997, NW extension of orebody was found 400 m from main underground deposit. Mine closed in 1998 and placed on care and maintenance.",Ordovician,445,,1.16,0.37,,,,,,,,,,0,"Siliciclastic-felsic in mature epicontinental arc",yes,"lower greenschist",yes,yes,stratigraphic
662,Carmel,,,PLPN,Philippines,Antique,10,53,32,10.8922222222222,122,5,23,122.089722222222,Mafic,1936,,0.11,1.48,0,0,0,0,no,"Massive. Limonitic gossan at surface. Accreted ocean crust in forearc or backarc setting.",Eocene,50,,,,,,,,,,,,,0,"Mafic in primitive oceanic backarc",yes,"greenschist, amphibolite",no,yes,stratigraphic
663,Carpio,,,SPAN,Spain,Huelva,37,46,20,37.7722222222222,-7,-1,-43,-7.02861111111111,Felsic,<1933,,3.35,0.5,2.77,0.12,0,0,no,"Massive. Epicontinental extensional rift basins.","Upper-Devonian-Lower Carboniferous",340,,0.243,0.076,,,,,,,,,,0,"Siliciclastic-felsic in mature epicontinental arc",yes,"lower greenschist",yes,yes,contact
664,"Castillo Buitron",,"Oriente, Poniente",SPAN,Spain,Huelva,37,38,12,37.6366666666667,-6,-45,-45,-6.7625,Felsic,<1933,,3.8,0.62,4.3,2.1,0,20,yes,"Massive, stockwork.","Upper Devonian-Lower Carboniferous",340,0.008,,,,,,,,,,,,0,"Siliciclastic-felsic in mature epicontinental arc",yes,"lower greenschist",yes,no,contact
665,Neves-Corvo,"Castro Verde","Neves, Corvo, Graca, Zambujal, Lombador",PORT,Portugal,Beja,37,34,26,37.5738888888889,-7,-58,-20,-7.97222222222222,Felsic,1977,1988,219,1.47,1.66,0.27,0,14,yes,"Massive, stockwork. Massive sulfides in two horizons SM1 and SM2. Stockwork underlie four of the deposits. Five lenticular deposits: Neves, Corvo, Graca, Zambujal, Lombador. Graca 700 m along strike, 500 m along dip, 80 m thick at depth 230 m to 450 m; Corvo 1100 m along dip, 600 m along strike, 92 m thick at depths 230 m to 800 m; Neves 1200 m along strike, 700 m along dip, 55 m thick; Lombador 600 m along strike, 1350 m along dip, 100 m thick at 1400.7 m to 1556.6 m depth; Zambujal 550 m along strike, 600 m along dip, 53 m thick.  Sn 0.08% in 219.0 million t.","Upper Devonian",370,,3.0,1.8,,,,,,,,,,230,"Siliciclastic-felsic in mature epicontinental arc",yes,"lower greenschist to sub-greenschist (prehnite-pumpellyite)",yes,no,stratigraphic
666,"Chu Chua",CC,,CNBC,Canada,"British Columbia",51,22,51,51.3808333333333,-120,-3,-42,-120.061666666667,Mafic,1978,,7,2,0.4,0,0.44,8.66,yes,"Massive, dissemination, stringer, two lenses. Gossan at surface.  0.1% Co. Alkalic oceanic island (seamount).",Devonian-Permian,320,0.008,0.3,0.05,,,,,,,,,,0,"Mafic in primitive oceanic backarc",yes,"lower greenschist",no,yes,"stratigraphic contact"
667,Centennial,,,CNMN,Canada,Manitoba,54,42,3,54.7008333333333,-101,-39,-59,-101.666388888889,Bimodal-Mafic,1969,1976,1.7,1.63,2.57,0,1.39,21.2,no,"Massive. Deposit beneath lake. Island arc tholeiite.",Proterozoic,1800,,0.488,0.015,,,,,,,,,,1,"Bimodal-mafic in oceanic arc",yes,"middle greenschist",yes,yes,stratigraphic
668,Chestatee,,,USGA,"United States",Georgia,34,33,1,34.5502777777778,-83,-52,-40,-83.8777777777778,Felsic,1892,1892,1.1,1,0.7,0,0.03,0,no,"Massive, dissemination, 1.5-12 m thick. Age 800-850. Back-arc rift or ensialic intraplate incipient rift (midocean ridge tholeiitic affinity).",Proterozoic,850,,,,,,,,,,,,,0,"Bimodal-felsic in epicontinental arc",yes,"amphibolite (garnet isograd)",,,contact
669,Chester,"Clearwater Stream",,CNNB,Canada,"New Brunswick",47,5,55,47.0986111111111,-66,-13,-38,-66.2272222222222,Felsic,1956,,16.24,0.77,0.19,0.07,0,0.11,yes,"Massive, dissemination, stringer, 0.00899 km thickness. Reported 0.004 g/t Au.",Ordovician,445,,0.2,0.2,,,,,,,,,,1,"Siliciclastic-felsic in mature epicontinental arc",yes,greenschist,no,yes,stratigraphic
670,"Chisel Lake",,"North Chisel",CNMN,Canada,Manitoba,54,49,56,54.8322222222222,-100,-7,-25,-100.123611111111,Felsic,1956,1960,9.75,0.31,9.8,0.27,1.22,33.2,yes,"Massive in complex series of anastomosing lenses. Ore body beneath Chisel Lake, not exposed. North Chisel Lake is 300 m down plunge from Chisel Lake deposit. Island arc tholeiite.",Proterozoic,1800,0.003,2.0,0.15,,,,,,,,,,30,"Siliciclastic-felsic in mature epicontinental arc",yes,"lower amphibolite",yes,yes,"stratigraphic contact"
671,Colchester,,,CNNF,Canada,Newfoundland,49,38,21,49.6391666666667,-56,-4,-55,-56.0819444444444,Mafic,1878,1878,0.91,1.3,0,0,0,0,yes,"Massive, stockwork.",Ordovician,500,0.02,0.427,0.076,,,,,,,,,,,"Mafic in primitive oceanic backarc",,,no,yes,stratigraphic
672,Concepción,,,SPAN,Spain,Huelva,37,46,42,37.7783333333333,-6,-40,-42,-6.67833333333333,Felsic,1575,1853,55.85,0.57,0.48,0.19,0.21,6.68,yes,"Massive, 0.04 km thickness.","Upper Devonian-Lower Carboniferous",340,,0.4,0.2,,,,,,,,,,0,"Siliciclastic-felsic in mature epicontinental arc",yes,"sub-greenschist (prehnite-pumpyellite)",yes,yes,stratigraphic
673,Conigo,"Manitou Barvue, Amos, Jay Copper",,CNQU,Canada,Quebec,48,35,48,48.5966666666667,-78,-3,-30,-78.0583333333333,Felsic,1913,1952,8.7,1,2.9,0,0,30.9,yes,"Massive, 3 en echelon lenses, 0.076 m thick. Cylindrical stockwork zone. Pb grade 0.004%.",Archean,2700,,0.12,0.12,,,,,,,,,,,"Siliciclastic-felsic in mature epicontinental arc",yes,greenschist,yes,yes,stratigraphic
675,"Copper George",,,AUWA,Australia,"Western Australia",-21,-36,-29,-21.6080555555556,120,20,52,120.347777777778,Felsic,1964,1965,0.5,0.29,5.2,0,0,0,yes,"Dissemination, stockwork.",Archean,3200,,,,,,,,,,,,,,"Bimodal-felsic in epicontinental arc",,,no,no,stratigraphic
676,"Copper Hill",,"Cosumnes, Hobo",USCA,"United States",California,38,30,9,38.5025,-120,-58,-11,-120.969722222222,Felsic,1861,1861,0.27,0.43,0,0,0,0,no,"Massive tabular body, dissemination. 0.0012 km thickness.",Jurassic,170,,0.15,0.15,,,,,,,,,,0,"Siliciclastic-felsic in mature epicontinental arc",yes,"greenschist, amphibolite",,,stratigraphic
677,"Copper Man",,,CNMN,Canada,Manitoba,54,38,57,54.6491666666667,-99,-52,-24,-99.8733333333333,Bimodal-Mafic,1928,,0.22,2.63,3.87,0,0,0,no,"Massive. A and B zones, exposed at surface. Tholeiitic.",Proterozoic,1840,,1.37,,,,,,,,,,,0,"Bimodal-mafic in oceanic arc",yes,,yes,yes,
678,Corbet,Dufault-Corbett,,CNQU,Canada,Quebec,48,18,0,48.3,-79,-4,-54,-79.0816666666667,Bimodal-Mafic,1974,1980,2.74,3.01,1.93,0,0.96,20.6,yes,"Massive, semi-massive, dissemination, stringer. 360 m long, 210 m wide, 70 m maximum thickness. Sn (100 ppm) is associated with pyrrhotite, but no tin minerals have been identified. Te minerals (tetradymite and krennerite) are present.",Archean,2700,,0.36,0.21,,,,,,,,,,701,"Bimodal-mafic in oceanic arc",yes,greenschist,no,yes,"stratigraphic, near the top contact with rhyolite"
679,Coronation,,,CNSK,Canada,Saskatchewan,54,35,5,54.5847222222222,-101,-59,-52,-101.997777777778,Bimodal-Mafic,1953,1960,1.28,4.24,0.22,0,1.89,6.2,no,"Massive, disseminations, 0.06 km thickness, 2 lens-shaped bodies in fault zone. 3 orebodies: Northeastern, Northwestern and Southern. Brecciated or stockwork ore in Southern orebody. Shear zone. Beneath 1.5-6 m glacial sediments. Gabbro and granodiorite dikes intrudes into orebody.",Proterozoic,1800,,0.31,0.2,,0.31,0.27,,,,,,,4,"Bimodal-mafic in oceanic arc",yes,"staurolite-almandine facies of almandine amphibolite",yes,yes,"contact shear zone between andesite flow and tuff"
680,Crandon,,,USWI,"United States",Wisconsin,45,28,50,45.4805555555556,-88,-55,-23,-88.9230555555555,Felsic,1974,,68,1,5,0,0,0,yes,"Zinc-rich massive tabular body, copper-rich stringer, elliptical lens. Ore body beneath 30-60 m glacial drift.",Proterozoic,1830,0.07,1.524,0.5,,,,,,,,,,30,"Siliciclastic-felsic in mature epicontinental arc",yes,"lower greenschist",no,yes,stratigraphic
682,Croydon,,,USNH,"United States","New Hampshire",43,25,52,43.4311111111111,-72,-15,-5,-72.2513888888889,Bimodal-Mafic,1878,,0.05,3.2,16.6,0,0,0,yes,"Massive, dissemination, tabular lens up to 4 m thick.",Ordovician,470,,,,,,,,,,,,,0,"Bimodal-mafic in oceanic arc",,amphibolite,,,
683,"Cueva de la Mora",,,SPAN,Spain,Huelva,37,46,58,37.7827777777778,-6,-49,-16,-6.82111111111111,Felsic,<1933,1968,4.2,1.45,0.73,0.26,0,0,no,Massive.,"Upper Devonian-Lower Carboniferous",340,,0.254,0.076,,,,,,,,,,0,"Siliciclastic-felsic in mature epicontinental arc",yes,"sub-greenschist (prehnite-pumpyellite)",yes,yes,"contact between shale and rhyolite tuff."
684,"Cupra D'Estrie",,,CNQU,Canada,Quebec,45,46,24,45.7733333333333,-71,-18,-48,-71.3133333333333,Felsic,1959,1965,2.97,2.65,2.63,0.43,0.48,36.2,no,"Massive, lenticular, 0.015 km thickness. Equal proportions of mafic and felsic volcanic rocks. Ensimatic island arc.",Ordovician,567,,1.83,0.3,,,,,,,,,,10,"Bimodal-felsic in oceanic arc",yes,greenschist,yes,yes,stratigraphic
685,Cuprus,,,CNMN,Canada,Manitoba,54,43,14,54.7205555555556,-101,-42,-39,-101.710833333333,Bimodal-Mafic,"1914 or 1919",1948,0.46,3.25,6.4,0,1.3,28.8,yes,"Massive. Island arc tholeiite.",Proterozoic,1800,,0.094,0.005,,,,,,,,,,0,"Bimodal-mafic in oceanic arc",yes,"middle greenschist",yes,yes,stratigraphic
686,Davis,,,USMS,"United States",Massachusetts,42,41,51,42.6975,-72,-52,-17,-72.8713888888889,Felsic,1878,1882,,,,,,,no,"Massive lens, 2-18 m thick, mined 400 m down-dip. Ensimatic island arc. Total size is unknown but estimated by Slack and others (1983) at 0.9 million t of unknown grades. Unpublished grades: 0.7% Cu, 5.6% Zn, 0.015% Pb, 27.8 g/t Ag.",Ordovician,470,,0.275,0.006,,,,,,,,,,0,"Bimodal-felsic in epicontinental arc",yes,amphibolite,no,no,stratigraphic
687,"Deer Isle",,,USME,"United States",Maine,44,12,56,44.2155555555556,-68,-43,-39,-68.7275,Mafic,>1870,1870s,0.05,4.22,1.4,0,10.6,68.6,yes,"Dissemination, massive thin lenses, up to 2.4 m thick, 61 m along strike, 79 m depth. In part contains contact-metamorphic deposits of sulfides and garnet formed by regional metamorphism.","Precambrian Z (570-800 Ma)",600,,0.061,0.002,,,,,,,,,,0,"Pelite-mafic in mature oceanic backarc",yes,greenschist,no,yes,stratigraphic
688,Delbridge,"Deldona, DEldona","Delbridge No. 1, Delbridge No. 2",CNQU,Canada,Quebec,48,15,54,48.265,-78,-57,-54,-78.965,Bimodal-Mafic,1947,1950,0.45,0.98,7.3,0,1.92,54.8,yes,"Massive, dissemination, stringer, 0.00759 km thickness, 2 lenses split by fault, 320 m apart, No. 1 and No. 2. Chlorite alteration pipe below orebody. Stratigraphy given for Delbridge No. 2.",Archean,2700,,0.45,0.015,,0.35,0.15,,,,,,,91,"Bimodal-mafic in oceanic arc",yes,greenschist,no,yes,"stratigraphic contact, south flank of rhyolite breccia pile."
689,Despina,"Beauchastel Copper",,CNQU,Canada,Quebec,48,17,12,48.2866666666667,-79,-6,0,-79.1,Bimodal-Mafic,1926,n.d,1.22,1.78,0,0,0,0,yes,Vein.,Archean,2700,,,,,,,,,,,,,0,"Bimodal-mafic in oceanic arc",,,,,stratigraphic
690,"Detour A-1","Les Mines Selbaie","A-1, A-2",CNQU,Canada,Quebec,49,48,32,49.8088888888889,-78,-56,-42,-78.945,Felsic,1974,1986,25,1.08,1.9,0,0.64,30.8,yes,"Vein, 2 separate zones. Disseminations, veins, vein breccia, stratiform siliceous, pyritic sinter. Epigenetic quartz-carbonate veins, in part epithermal.",Archean,2710,,1.4,0.65,,,,,,,,,,20,"Bimodal-felsic in epicontinental arc",yes,sub-greenschist,no,yes,"stratigraphic, faults"
691,"Devils Elbow",,,CNNB,Canada,"New Brunswick",47,25,51,47.4308333333333,-66,-23,-57,-66.3991666666667,Felsic,1956,,0.52,1.05,0,0,0,0,yes,"Massive, dissemination, exposed. Overturned beds.",Ordovician,445,0.01,0.6,0.046,,,,,,,"residual total magnetic field (minimum -50 nT)",1.2,0.6,0,"Siliciclastic-felsic in mature epicontinental arc",yes,greenschist,yes,yes,stratigraphic
692,Dickstone,,,CNMN,Canada,Manitoba,54,51,13,54.8536111111111,-100,-29,-24,-100.49,Bimodal-Mafic,1935,1970,1.08,2.47,3.13,0,0.55,12.3,no,"Massive, 2 elongated lenses in sheared zone. Extends down to 350 m depth. Island arc tholeiite.",Proterozoic,1800,,0.234,0.003,,,,,,,,,,,"Bimodal-mafic in oceanic arc",yes,,,,stratigraphic
693,"Don Jon",,,CNMN,Canada,Manitoba,54,45,40,54.7611111111111,-101,-34,-27,-101.574166666667,Bimodal-Mafic,1929,1954,0.08,3.07,0,0,0.79,14.7,yes,"Massive, stringer, 2 parallel lenses (Western and Eastern) 5 m apart and associated stringer zone be low. Island arc tholeiite.",Proterozoic,1800,0.0004,0.03,0.001,,,,,,,,,,0,"Bimodal-mafic in oceanic arc",yes,greenschist,no,yes,stratigraphic
694,"Double Ed",,,CNBC,Canada,"British Columbia",55,24,45,55.4125,-129,-52,-35,-129.876388888889,Bimodal-Mafic,1935,,,,,,,,yes,"Dissemination, massive, banded. Reserves 3.63 million t @ 1% Cu, 0.6% Zn, open at depth.",Triassic,240,,,,,,,,,,,,,0,"Bimodal-mafic in oceanic arc",yes,greenschist,,yes,stratigraphic
695,LaRonde-Dumagami,"Bouscadillac-Thompson Cadillac, Donald J. LaRonde",,CNQU,Canada,Quebec,48,15,3,48.2508333333333,-78,-26,-23,-78.4397222222222,Bimodal-Mafic,1963,1988,50.44,0.37,2.76,0,3.85,58.3,yes,"Massive, disseminations, ruler-shaped, plunges steeply W parallel with regional schistosity. 20N Au zone is thought to be an inverted stockwork zone with an overlying massive sulfide lens (20N Zn zone). 800 m vertical extent.",Archean,2697,0.01,0.427,0.03,,,,,,,,,,0,"Bimodal-mafic in oceanic arc",yes,"upper greenschist",yes,yes,stratigraphic
696,"Dumont Bourlamaque",,,CNQU,Canada,Quebec,48,3,4,48.0511111111111,-77,-42,-39,-77.7108333333333,Bimodal-Mafic,1932,1982,0.18,0.69,0,0,2.9,0,yes,"Vein, dissemination, pipe-shaped.",Archean,2700,,,,,,,,,,,,,,"Bimodal-mafic in oceanic arc",yes,greenschist,no,yes,stratigraphic
697,Dunraine,,,CNQU,Canada,Quebec,48,4,36,48.0766666666667,-77,-34,-12,-77.57,Felsic,1932,1956,3.03,1.19,0,0,0.18,3.09,yes,"Massive, dissemination, veinlets.",Archean,2700,,,,,,,,,,,,,,"Siliciclastic-felsic in mature epicontinental arc",yes,greenschist,yes,yes,stratigraphic
699,"Dyce Siding","Sylvia Zone",,CNMN,Canada,Manitoba,54,24,24,54.4066666666667,-100,-8,-57,-100.149166666667,Bimodal-Mafic,1977,,,,,,,,no,"Massive sulfides not exposed, beneath 69 m of dolomite formation. Disseminations, stringers. Down to 450 m depth. 3.18 million t @ 0.65% Cu, 1.83% Zn, open extent. Sylvia Zone has 1.2M t @ 2.08% Cu, 1.6% Zn, 19.2 g/t Ag, 0.62 g/t Au (Northern Miner April 16-22, 2007). Age 900-570 Ma. Au-rich zone lies to the north.","Upper Proterozoic",700,,0.73,0.007,,,,,,,,,,69,"Bimodal-mafic in oceanic arc",yes,greenschist,yes,yes,stratigraphic
700,"Early Bird",,,USCA,"United States",California,40,43,36,40.7266666666667,-122,-31,-17,-122.521388888889,Felsic,1918,1918,0.04,4.3,4.7,0,1.1,61.7,no,"Massive, 0.006 km thickness, elongate.",Devonian,390,,0.14,0.03,,,,,,,,,,0,"Siliciclastic-felsic in mature epicontinental arc",yes,,,,stratigraphic
701,"East Sullivan",,,CNQU,Canada,Quebec,48,4,7,48.0686111111111,-77,-43,-53,-77.7313888888889,Felsic,1944,1949,16,1.7,4,0,0.24,7.2,no,"Massive, semi-massive, veinlets, inclined cylinder. 16 lenses.",Archean,2715,,,,,,,,,,,,,,"Siliciclastic-felsic in mature epicontinental arc",yes,greenschist,yes,yes,"stratigraphic, contact with syenite"
702,Ego,,,CNON,Canada,Ontario,48,14,10,48.2361111111111,-84,-37,-40,-84.6277777777778,Bimodal-Mafic,<1918,,0.45,1.84,0,0,4.6,34,no,"Massive, 0.06 km thickness, 7 zones.",Archean,3200,,0.31,0.18,,,,,,,,,,,"Bimodal-mafic in oceanic arc",yes,,,,
703,"Embury Lake","Trout Lake",,CNMN,Canada,Manitoba,54,49,2,54.8172222222222,-101,-48,-57,-101.815833333333,Bimodal-Mafic,1975,1982,10.18,2.11,4.79,0.04,1.41,15.43,yes,"Massive and disseminated or stringer ores. North Zone has upper and lower lenses of massive sulfide and disseminated ores, South Zone has a stacked group of four lenses, two at approximately the same hangingwall horizon with the other two at different horizons to the footwall. Widths of lenses 1.5-25 m, strike length 100-200 m, depth 80 to 400 m. Beneath 80 m of lake water and cover rock. Island arc tholeiite.",Proterozoic,1800,,,,,,,,,,,,,80,"Bimodal-mafic in oceanic arc",yes,greenschist,yes,,stratigraphic
704,Emerson,,,USME,"United States",Maine,44,24,58,44.4161111111111,-68,-46,-21,-68.7725,Felsic,<1910,,0.15,0.23,3.16,2.28,11.2,134.5,yes,"Massive, stockwork, dissemination. Emmons (1910) describes rhyolite as brecciated. Extensional rift in post-arc setting.",Devonian,390,,,,,,,,,,,,,0,"Siliciclastic-felsic in mature epicontinental arc",no,greenschist,,,
705,"Empire Le Tac","Empire Oil, Le Tac",,CNQU,Canada,Quebec,49,26,48,49.4466666666667,-76,-9,-30,-76.1583333333333,Bimodal-Mafic,1949,,0.32,0.25,2.42,0,0,5.59,yes,Dissemination.,Archean,2725,,,,,,,,,,,,,,"Bimodal-mafic in oceanic arc",,,,,stratigraphic
706,Errington,,,CNON,Canada,Ontario,46,32,22,46.5394444444444,-81,-15,-21,-81.2558333333333,Bimodal-Mafic,1900,1928,12.21,1.2,3.8,1,0.82,54.5,yes,"Massive, dissemination, irregular pods in shear zone. Galley and others (2007) classified tectonic setting as bimodal siliciclastic.",Proterozoic,1850,,,,,,,,,,,,,,"Bimodal-mafic in oceanic arc",yes,,,,"stratigraphic contact"
707,Estaçao,Aljustrel,,PORT,Portugal,Beja,37,52,58,37.8827777777778,-8,-9,-21,-8.15583333333333,Felsic,1968,n.d,30,0.3,4.5,1.5,0.3,40,no,"Massive. 60? N-dipping ore lens, 300 m below surface.Ensialic rifted basin.",Carboniferous,320,,,,,,,,,,,,,300,"Siliciclastic-felsic in mature epicontinental arc",yes,greenschist,no,yes,stratigraphic
708,Eulaminna,Anaconda,,AUWA,Australia,"Western Australia",-28,-58,-36,-28.9766666666667,121,46,11,121.769722222222,Bimodal-Mafic,<1899,1899,0.05,9.01,0,0,0,0,no,"3 lenticular pyritic massive sulfide bodies. Secondary enrichment Cu occurs between 30-60 m depth.",Archean,3200,,,,,,,,,,,,,0,"Bimodal-mafic in oceanic arc",yes,"lower greenschist",no,yes,"contact between pillow basalt and sediments-rhyolite-dacite."
709,Eustis,"Lower Canada",,CNQU,Canada,Quebec,45,19,4,45.3177777777778,-71,-55,-12,-71.92,Felsic,1865,1866,6.35,1.7,0,0,0,0,no,"Massive, 0.008 km thickness, 4 lenses. Ensimatic island arc.",Ordovician,470,,1.85,0.08,,,,,,,,,,0,"Bimodal-felsic in oceanic arc",yes,greenschist,yes,yes,stratigraphic
710,"F Group",,,CNON,Canada,Ontario,49,52,6,49.8683333333333,-91,-2,-14,-91.0372222222222,Felsic,1970,1981,0.57,0.98,8.1,0.49,0,62,no,"Massive, west extension of Mattibi deposit. Ore reserves depleted in 1984.",Archean,2735,,,,,,,,,,,,,20,"Siliciclastic-felsic in mature epicontinental arc",,,,,"stratigraphic contact"
712,"Filon Sur-Esperanza","Tharsis, La Esperanza","Filon Sur, Esperanza",SPAN,Spain,Huelva,37,35,6,37.585,-7,-7,-5,-7.11805555555556,Felsic,>1866,,110,1.2,1,0.5,1,30,yes,"Massive, stockwork. 4.5 million t contains 40 g/t Ag, 1.2 g/t Au, 15.5 million t gossan contains 29 g/t Ag, 1.74 g/t Au (Leistel and others, 1998).","Upper Devonian-Lower Carboniferous",340,,,,,,,,,,,,,0,"Siliciclastic-felsic in mature epicontinental arc",yes,greenschist,yes,yes,stratigraphic
713,Fjeldgruve,"Sulitjelma, Fjellgruben",,NRWY,Norway,,67,8,50,67.1472222222222,16,7,22,16.1227777777778,Bimodal-Mafic,>1890,,0.03,1.85,3.7,0,0,0,no,"Massive elongate sheet, 0.001 km thickness, 50 m width. Marginal back-arc rift, ensimatic.",Ordovician,470,0.0004,0.324,0.001,,,,,,,,,,,"Bimodal-mafic in oceanic arc",yes,amphibolite,,,stratigraphic
714,"FL and DH",,,CNMN,Canada,Manitoba,56,50,0,56.8333333333333,-101,0,-30,-101.008333333333,Bimodal-Mafic,1947,,0.45,0.9,2.2,0,0,0,no,Massive.,Proterozoic,1800,,,,,,,,,,,,,,"Bimodal-mafic in oceanic arc",,,,,
715,Flambeau,,,USWI,"United States",Wisconsin,45,26,16,45.4377777777778,-91,-7,-11,-91.1197222222222,Felsic,1968,,5.4,2.07,1.2,0,0,0,no,"Massive, dissemination, 0.02 km thickness, vertically-oriented lens-shaped pod. Overturned beds.",Proterozoic,1820,,0.73,0.24,,1.53,0.061,,,,,,,18,"Siliciclastic-felsic in mature epicontinental arc",yes,"andalusite amphibolite",,,stratigraphic
716,"Flat Landing",,,CNNB,Canada,"New Brunswick",47,23,2,47.3838888888889,-65,-51,-22,-65.8561111111111,Felsic,1975,,,,,,,,yes,"Massive, tabular, strikes N-S, dips 70?, plunges sub-vertically, stockwork. Extends to over 1 km depth. At contact between tuff and breccia units. Reserves 1.37 million t @ 0.03% Cu, 4.9% Zn, 0.94% Pb, or 1.7 million t @ 4.9% Zn, 0.94%Pb, 19.54 g/t Ag (Sabina, 1977-1978). 9.636 million t @>4% Pb + Zn, open at depth (Noranda).",Ordovician,445,,,,,,,,,,,,,100,"Siliciclastic-felsic in mature epicontinental arc",yes,greenschist,yes,yes,"stratigraphic contact"
717,Flexar,,,CNSK,Canada,Saskatchewan,54,40,37,54.6769444444444,-102,-1,-43,-102.028611111111,Bimodal-Mafic,1953,1969,0.3,3.8,0.47,0,1.37,6.1,no,"Massive lens.",Proterozoic,1800,,,,,,,,,,,,,,"Bimodal-mafic in oceanic arc",yes,greenschist,,yes,stratigraphic
718,"Flin Flon",,,CNMN,Canada,Manitoba,54,45,50,54.7638888888889,-101,-53,-1,-101.883611111111,Bimodal-Mafic,1914,1930,62.4,2.19,4.2,0.2,2.6,41.5,no,"Massive and disseminated, 0.02 km thickness, 6 lenticular orebodies. Chloritic schist shear zone beneath ore may represent a feeder pipe. Island arc tholeiite.",Proterozoic,1800,,1.5,0.3,,,,,,,,,,0,"Bimodal-mafic in oceanic arc",yes,"lower greenschist",no,yes,stratigraphic
719,Fonnfjell,,,NRWY,Norway,,63,25,10,63.4194444444444,11,41,2,11.6838888888889,Bimodal-Mafic,n.d,n.d,0.13,0.4,0,0,0,0,no,"Massive, dissemination ruler. 19% S. Marginal back-arc rift, ensimatic. Bulk composition: 2.1% Cu, 6.3% Zn, 0.01% Pb, 8 g/t Ag, 0.2 g/t Au.","Lower Ordovician",480,,,,,,,,,,,,,,"Bimodal-mafic in oceanic arc",yes,"greenschist to upper amphibolite",yes,yes,stratigraphic
720,Fornas,,,SPAN,Spain,Pontevedra,42,50,59,42.8497222222222,-8,-29,-30,-8.49166666666667,Mafic,1969,,1,1.33,0,0,0,0,no,"Massive, dissemination.",Silurian,430,,,,,,,,,,,,,,"Mafic in primitive oceanic backarc",,,,,
721,Fox,,,CNMN,Canada,Manitoba,56,38,11,56.6363888888889,-101,-39,-9,-101.6525,Bimodal-Mafic,1961,1970,13,1.88,1.95,0,0.18,5.23,yes,"Massive, dissemination, 0.03 km thickness, 2 lenticular bodies. Quartz-epidote veins contain galena, arsenopyrite, native gold, silver tellurides (hessite?).",Proterozoic,1800,,0.86,0.45,,0.86,0.54,"Enriched Cu, Pb, Zn, Co, Ni, Cr, K; depleted Na, Ca",,,,,,0,"Bimodal-mafic in oceanic arc",yes,"almandine amphibolite, retrograde greenschist",no,yes,stratigraphic
722,"Freddie Wells",,,AUWA,Australia,"Western Australia",-28,-45,0,-28.75,118,41,0,118.683333333333,Bimodal-Mafic,1971,,0.8,0.2,8.9,0,0,0,no,"Massive pods. Surface gossans.",Archean,3200,,3.0,0.014,,,,"Soil has high Zn and Fe, subordinate Cu, anomalous Cd, In, Ag, Mo, and Mn, erratic Sn W, Ga, and Co, detectable Sb and Bi, low Pb and Ni, nearly absent As",,,,,,0,"Bimodal-mafic in oceanic arc",yes,greenschist,no,yes,"contact between rhyolite tuff and gabbro"
723,Fretais,Aljustrel,,PORT,Portugal,Beja,37,52,24,37.8733333333333,-8,-9,-11,-8.15305555555556,Felsic,1963,,,,,,,,yes,"Massive, stockwork below. 50? N dipping ore body. Ensialic rifted basin. 70 million t @0.53% Cu, 2.98% Zn, 1.27% Pb, 0.5 g/t Au, 31 g/t Ag, open down-plunge.",Carboniferous,320,,0.5,0.1,,,,,,,,,,100,"Siliciclastic-felsic in mature epicontinental arc",yes,"greenschist to sub-greenschist (pumpellyite)",no,yes,stratigraphic
724,"Frotet Lake","Domergue Lake, Lessard",,CNQU,Canada,Quebec,50,38,30,50.6416666666667,-74,-38,-30,-74.6416666666667,Bimodal-Mafic,1971,n.d,1.33,1.73,2.96,0,0.54,31,no,"Massive, 2 lenses.",Archean,2730,,,,,,,,,,,,,,"Bimodal-mafic in oceanic arc",,,,,
725,Fukazawa,,,JAPN,Japan,Akita,40,15,33,40.2591666666667,140,41,6,140.685,Felsic,1969,,6.47,1.11,14.7,3.08,1.18,145,no,"Massive. Ore zone (top to bottom): ferruginous chert, barite, black ore, yellow ore, gypsum ore, siliceous ore,silicified rock. Siliceous ore is simple veins, network veins, network veins-impregnation and stratiform ore (upwards).",Miocene,15,0.19,1.5,0.8,,3.1,2,"Depleted in Na2O",,,"Low magnetic susceptibility",4,2,150,"Siliciclastic-felsic in mature epicontinental arc",yes,,yes,yes,stratigraphic
726,Furuhaugen,Sulitjelma,,NRWY,Norway,,67,8,59,67.1497222222222,15,57,39,15.9608333333333,Bimodal-Mafic,>1890,n.d,0.2,1.8,0.5,0,0,0,no,"Massive elongate sheets, East and West orebodies. Marginal back-arc rift, ensimatic.",Ordovician,470,0.03,0.75,0.02,,,,,,,,,,,"Bimodal-mafic in oceanic arc",yes,amphibolite,,,stratigraphic
727,Furutobe-Ainai,,"Yunosawa-Benten, Daikokuzawa-Higashi, Daikokuzawa-Nishi, Magariyazawa, Higashimatazawa, Daikoku, Yunosawa-Suehiro, Yokodawara-Hagoromo, Kanayamazawa",JAPN,Japan,Akita,40,24,0,40.4,140,43,0,140.716666666667,Felsic,1934,1963,14.24,1.48,2.32,0.55,1.6,148,yes,"Massive, dissemination, stringer, funnel-shaped.",Miocene,15,0.19,1.4,0.8,,,,,,,,,,0,"Siliciclastic-felsic in mature epicontinental arc",no,,yes,yes,stratigraphic
728,"Gamle Folldal",Folldal,,NRWY,Norway,,62,8,32,62.1422222222222,9,59,56,9.99888888888889,Bimodal-Mafic,1745,1748,3,1.5,3,0.3,0,0,no,"Massive lenses, 35% S. Marginal back-arc rift, ensimatic.",Ordovician,470,,,,,,,,,,,,,,"Bimodal-mafic in oceanic arc",yes,greenschist,,,"contact between rhyolite tuff and basalt flow."
729,"Garon Lake",,,CNQU,Canada,Quebec,49,45,28,49.7577777777778,-77,-33,-50,-77.5638888888889,Bimodal-Mafic,1956,1971,0.52,1.45,2.22,0,0.34,10.3,yes,"Massive, dissemination, stockwork. 3 lenses.",Archean,2725,,,,,,,,,,,,,15,"Bimodal-mafic in oceanic arc",yes,amphibolite,no,yes,"stratigraphic contact"
730,Gaviao,Aljustrel,,PORT,Portugal,Beja,37,52,20,37.8722222222222,-8,-12,-7,-8.20194444444444,Felsic,1970,,25.7,1.52,2.85,0.96,0.8,34,no,"Massive. Beneath 60-80 m Tertiary sediments. Ensialic rifted basin.",Carboniferous,320,,,,,,,,,,,,,60,"Siliciclastic-felsic in mature epicontinental arc",yes,"greenschist to sub-greenschist (pumpellyite)",no,yes,stratigraphic
731,Gelvenakko,,,SWDN,Sweden,,65,4,4,65.0677777777778,14,25,35,14.4263888888889,Felsic,,,0.05,1.84,1.63,0.42,0.1,16,no,"Massive, dissemination.",Silurian,430,,,,,,,,,,,,,,"Bimodal-felsic in oceanic arc",,,,,
733,"Ghost Lake",,,CNMN,Canada,Manitoba,54,49,50,54.8305555555556,-100,-6,-22,-100.106111111111,Felsic,1956,1972,0.56,1.39,8.64,0.4,1.37,46.3,no,"Massive. Saucer-shaped orebody extending from 61 to 183 m depth. Strike length 152 m, at least 30 m wide. Island arc tholeiite.",Proterozoic,1800,,0.152,,,,,,,,,,,61,"Siliciclastic-felsic in mature epicontinental arc",yes,"lower amphibolite",no,yes,"contact between basalt and rhyolite."
734,"Giken-Charlotta-Mons Petter-Palmberg-Hankabakken-Sturre",Sulitjelma,"Giken I, Giken II, Charlotta I, Charlotta II, Mons Petter I, Mons Petter II, Hankabakken, Sturre, Palmberg",NRWY,Norway,,67,8,11,67.1363888888889,16,3,18,16.055,Bimodal-Mafic,1860,1892,15.8,1.95,0.56,0,0,2,no,"Massive elongate sheet, dissemination, 17-19% S. Marginal back-arc rift, ensimatic.",Ordovician,470,0.38,3.0,0.075,,,,,,,,,,,"Bimodal-mafic in oceanic arc",yes,"greenschist to amphibolite",,,stratigraphic
735,Girilambone,,,AUNS,Australia,"New South Wales",-31,-15,-26,-31.2572222222222,146,52,8,146.868888888889,Mafic,1879,1881,11.4,1.27,0,0,0,0,yes,"Massive, dissemination, footwall stringers. 120 m strike length, 10 m width.",Cambrian,510,,0.12,,,,,,,,,,,0,"Pelite-mafic in mature oceanic backarc",yes,greenschist,no,yes,stratigraphic
736,Gjersvik,,,NRWY,Norway,,64,52,0,64.8666666666667,13,27,0,13.45,Bimodal-Mafic,1909,,1.7,1.35,0.3,0,0,0,yes,"Massive, stockwork, 1-5 m thickness, steeply dipping SW. Spoon-shaped plate. Contains 31% S. Stratigraphy is inverted. Pyrite veinlets feeder zone in rhyodacite. Rifted island arc (arc tholeiitic and MORB affinity).",Ordovician,470,,0.5,0.23,,,,,,,,,,0,"Bimodal-mafic in epicontinental arc",yes,"lower greenschist",yes,yes,stratigraphic
737,Goodenough,Sherlynn,,CNMN,Canada,Manitoba,56,53,42,56.895,-101,-5,-30,-101.091666666667,Bimodal-Mafic,1947,,0.17,2.63,1.21,0,2.05,0,no,Massive.,Proterozoic,1800,,,,,,,,,,,,,,"Bimodal-mafic in oceanic arc",,,no,yes,
738,"Grey Eagle",,,USCA,"United States",California,41,51,48,41.8633333333333,-123,-22,-17,-123.371388888889,Felsic,1892,1895,2.24,1.82,0,0,2.4,3.7,no,"Massive, 0.006 km thickness. Elliptical.  No stringer zone.",Jurassic,170,,0.243,0.0018,,,,,,,,,,0,"Siliciclastic-felsic in mature epicontinental arc",yes,"lower greenschist",,,stratigraphic
739,"Green Coast",,,CNON,Canada,Ontario,48,38,35,48.6430555555556,-90,-26,-2,-90.4338888888889,Bimodal-Mafic,1929,,,,,,,,no,"Dissemination, massive, 0.00699 km thickness. Resource indicated 0.181 million t @ 1.25% Cu, not fully explored.","Late Archean",2600,,0.18,0.05,,,,,,,,,,,"Bimodal-mafic in oceanic arc",,,,,
740,"Greens Creek",,,USAK,"United States",Alaska,58,4,56,58.0822222222222,-134,-37,-55,-134.631944444444,Mafic,1975,,,,,,,,yes,"Massive, stringer, dissemination. Surface gossans. Under exploration, over 13 million t @ 12.8% Zn, 4% Pb, 456 g/t Ag, 6.5 g/t Au, in six orebodies: East, West, 5250 Extension (Fred), Northwest Extension, Southwest, and 200 South.",Triassic,240,0.02,,,,,,,,,,,,0,"Pelite-mafic in mature oceanic backarc",yes,greenschist,no,no,stratigraphic
741,Grevdal,,,NRWY,Norway,,60,0,37,60.0102777777778,5,53,0,5.88333333333333,Bimodal-Mafic,n.d,n.d,0.15,1,0,0,0,0,no,"Massive, dissemination ruler shape, 23% S. Marginal back-arc rift, ensimatic.",Silurian,430,,,,,,,,,,,,,,"Bimodal-mafic in oceanic arc",yes,greenschist,,,stratigraphic
742,Grimsdalen,,,NRWY,Norway,,62,2,0,62.0333333333333,9,54,0,9.9,Bimodal-Mafic,n.d,,3,0.8,1.2,0.08,0,0,no,"Massive lenses, 32% S. Marginal back-arc rift.",Ordovician,470,,,,,,,,,,,,,,"Bimodal-mafic in epicontinental arc",yes,greenschist,,,stratigraphic
743,Gullbridge,"Gull Pond, Great Gull Lake, Gull Lake, Mineral Point",,CNNF,Canada,Newfoundland,49,11,49,49.1969444444444,-56,-9,-18,-56.155,Felsic,1905,1966,4.7,0.8,0,0,0,0,yes,"Massive, stringer, 0.07 km thickness, tabular lenses. Mature island arc (calc-alkaline).",Ordovician,445,,0.43,0.21,,,,,,,,,,,"Siliciclastic-felsic in mature epicontinental arc",yes,greenschist,no,yes,stratigraphic
744,Hacan,,,TRKY,Turkey,Elazig,38,20,43,38.3452777777778,39,32,44,39.5455555555556,Mafic,,,0.04,1.6,0,0,0,0,no,Massive.,"Upper Cretaceous",80,,,,,,,,,,,,,,"Mafic in primitive oceanic backarc",yes,greenschist,no,yes,"stratigraphic contact"
745,"Half Mile Lake","Middle River, Texas","Sweet Grass, Little Bald Mountain, Bay Copper, Half Mile North",CNNB,Canada,"New Brunswick",47,18,8,47.3022222222222,-66,-19,-54,-66.3316666666667,Felsic,1955,,,,,,,,yes,"Dissemination. Crops out and gossans. Ensialic island arc rift basin. Reserves 8.16 million t @ 0.19% Cu, 8.92% Zn, 2.91% Pb, 40 g/t Ag (Half Mile Lake); 0.907 million t @ 0.44% Cu, 6.01% Zn, 0.79% Pb, 1.71 g/t Ag (Sweet Grass); 0.789 million t @ 0.39% Cu, 4.95% Zn, 0.87% Pb, 8 g/t Ag, 0.2 g/t Au (Half Mile North); 3.5 million t @9% Pb+Zn (Little Bald Mountain); unknown down-dip tonnage at Bay Copper Mines.",Ordovician,445,,,,,,,,,,,,,0,"Siliciclastic-felsic in mature epicontinental arc",yes,greenschist,yes,yes,stratigraphic
746,Halliwell,,,CNQU,Canada,Quebec,48,15,12,48.2533333333333,-79,-11,0,-79.1833333333333,Bimodal-Mafic,1926,1938,0.18,1.73,0,0,0.24,0,no,"Dissemination, massive.",Archean,2700,0.25,0.018,0.018,,,,,,,,,,,"Bimodal-mafic in oceanic arc",,,no,yes,stratigraphic
747,"Hanaoka (Doy-Tsut-Kam)",,"Doyashiki, Tsutsumizawa, Kamiyama, Ochiaizawa, Shakanaih 1, Shakanaih 2, Shakanaih 3, Inarizawa",JAPN,Japan,Akita,40,19,17,40.3213888888889,140,32,38,140.543888888889,Felsic,1885,1916,22.88,2.08,3.46,1.02,0,0,no,Massive.,Miocene,15,,2.8,2.2,,,,,,,,,,0,"Siliciclastic-felsic in mature epicontinental arc",no,sub-greenschist,yes,yes,stratigraphic
748,"Hanaoka (Mats-Sha)",,"Matsumine, Shakanai  4, Shakanai 5, Shakanai 7, Shakanai 8, Shakanai 11, Takadate, Matsuki",JAPN,Japan,Akita,40,17,20,40.2888888888889,140,33,36,140.56,Felsic,1962,1965,54.2,2.19,2.63,0.76,0.62,64,no,"Massive. Stratigraphy given for Matsumine deposit.",Miocene,15,,1.3,1.3,,,,,,,,,,215,"Siliciclastic-felsic in mature epicontinental arc",no,sub-greenschist,no,yes,stratigraphic
749,"Hanawa (Aketoshi-Osaki)",,"Aketoshi, Osaki",JAPN,Japan,Akita,40,11,17,40.1880555555556,140,52,20,140.872222222222,Felsic,1962,,2.26,1.55,9.24,3.18,0,0,no,"Massive lenticular.",Miocene,15,0.00499,,,,,,,,,,,,0,"Siliciclastic-felsic in mature epicontinental arc",,,yes,yes,stratigraphic
750,"Hand Camp",,,CNNF,Canada,Newfoundland,49,16,55,49.2819444444444,-56,-4,-50,-56.0805555555556,Felsic,1928,,2.27,2.62,0,0,13.4,56,no,"Massive, in shear zone. Mature island arc (calc-alkaline).",Ordovician,445,0.01,0.610,0.021,,,,,,,,,,,"Siliciclastic-felsic in mature epicontinental arc",yes,greenschist,,,stratigraphic
751,"Hanson Lake",,,CNSK,Canada,Saskatchewan,54,40,30,54.675,-102,-51,0,-102.85,Felsic,1953,1969,0.14,0.51,9.99,5.83,0,137,no,"Massive, disseminations, 0.00899 km thickness. Lens in shear zone. Beneath Hanson Lake. Not same as McIlvenna Bay (Hanson Lake) deposit. Age based on quartz porphyry stocks. Primitive arc tholeiites to evolved calc-alkaline island arc.",Proterozoic,1861,,0.43,0.15,,,,,,,,,,30,"Siliciclastic-felsic in mature epicontinental arc",yes,greenschist,yes,yes,"shear zones"
752,Harkoy,Harkkoy,,TRKY,Turkey,Giresun,40,56,55,40.9486111111111,38,53,54,38.8983333333333,Felsic,1957,,4,0.845,7.7,3.77,0,0,yes,"Massive, 40 m thick, sub-horizontal, stringer ore below. Massive ore largely eroded, with larger stringer zone preserved. Barite ore above massive ore. Argillic alteration in hangingwall, quartz-sericite and carbonization in footwall. Island arc extensional basin.","Upper Cretaceous",80,,,,,,,,,,,,,0,"Bimodal-felsic in epicontinental arc",,zeolite,,,"stratigraphic contact"
753,"Heath Steele (A-C-D)",,"Heath Steele A, Heath Steele C, Heath Steele D",CNNB,Canada,"New Brunswick",47,17,33,47.2925,-66,-3,-41,-66.0613888888889,Felsic,1953,,4.78,1,5.34,1.31,1.03,56.6,yes,"Massive, stringer of disseminated sulfides in footwall. 5 zones pods and lenses. Fragmental ore crops out at the surface.",Ordovician,445,,1.524,0.914,,,,,,,,,,0,"Siliciclastic-felsic in mature epicontinental arc",yes,"lower greenschist",yes,yes,"contact between iron formation and rhyolite porphyry and argillite"
754,"Heath Steele (B)",,"Heath Steele B",CNNB,Canada,"New Brunswick",47,17,59,47.2997222222222,-66,-2,-13,-66.0369444444444,Felsic,1953,1957,40.42,1.11,4.71,1.61,0.93,63.8,no,Massive.,Ordovician,445,0.43,1.1,0.5,,,,,,,,,,,"Siliciclastic-felsic in mature epicontinental arc",yes,"lower greenschist",yes,yes,"stratigraphic contact"
755,"Heath Steele (E-F)",,"Heath Steele E, Heath Steele F",CNNB,Canada,"New Brunswick",47,17,33,47.2925,-66,-3,-41,-66.0613888888889,Felsic,1953,,1.4,1.51,4.39,2.01,1.03,79.9,no,Massive.,Ordovician,445,,,,,,,,,,,,,0,"Siliciclastic-felsic in mature epicontinental arc",yes,"lower greenschist",yes,yes,"stratigraphic contact"
756,Heimtjonnho,Hemtjonho,,NRWY,Norway,,62,22,0,62.3666666666667,9,50,0,9.83333333333333,Bimodal-Mafic,n.d,n.d,,,,,,,no,"Massive lenses, 48% S. Marginal back-arc rift, ensialic. Reserves 1.2 million t @ <0.1% Cu, <0.1% Zn.",Ordovician,470,,,,,,,,,,,,,,"Bimodal-mafic in epicontinental arc",yes,amphibolite,,,stratigraphic
757,Hercules,,"Mt. Read, Hercules",AUTS,Australia,Tasmania,-41,-50,-45,-41.8458333333333,145,30,56,145.515555555556,Felsic,1894,1900,2.6,0.4,16.7,5.08,2.7,159,no,"Massive, irregular lenses. Series of small lenses of sheets and pods, 100 m x 100 m x 5-10 m, strike N-S, dip 60?-70? E. Two sections: Hercules and Mt. Read 200 m apart. Remobilization into anticlinal fold hinges and along the eastern limbs of the dragfolds. Extensional basin in an arc-continental collision zone.",Cambrian,502,,1.0,0.25,,,,Thallium,0.46,0.05,,,,0,"Siliciclastic-felsic in mature epicontinental arc",yes,greenschist,no,no,stratigraphic
758,Herrerias,,"Herrerias, Santa Barbara",SPAN,Spain,Huelva,37,36,55,37.6152777777778,-7,-17,-37,-7.29361111111111,Felsic,1892,1950,7.3,1.07,1.19,0.68,0,0,no,"Massive, 0.04 km thickness.","Upper Devonian- Lower Carboniferous",340,,0.4,0.11,,,,,,,,,,0,"Siliciclastic-felsic in mature epicontinental arc",yes,"lower greenschist",no,no,"contact between graywacke-shale and rhyolite flows."
759,Hersjo,Harsjo,,NRWY,Norway,,62,37,21,62.6225,11,20,52,11.3477777777778,Bimodal-Mafic,1685,1685,3.2,1.4,1.4,0.01,0,0,no,"Massive lenses, 35% S. Marginal back-arc rift.",Ordovician,470,,,,,,,,,,,,,,"Bimodal-mafic in oceanic arc",yes,"upper greenschist",,,stratigraphic
760,"Hidden Creek",Anyox,"No. 1, 2, 3, 4, 5, 6 ,7  and 8 Orebody, North Hidden Creek",CNBC,Canada,"British Columbia",55,26,21,55.4391666666667,-129,-49,-27,-129.824166666667,Mafic,1901,1914,67.1,0.86,0,0,0.17,9.5,yes,"Massive and stockwork dissemination, in 8 bodies. Tholeiitic basalt. Note: Cu grade calculated from production plus resources, Au and Ag grades projected from past production. Minfile classified this deposit as a Cyprus-type, but lack of ophiolite sequence and abundant pelitic sediments would tend to put it in the pelitic-mafic type class. Early discovery suggests deposit was exposed at the surface.",Triassic,240,,,,,,,,,,,,,0,"Pelite-mafic in mature oceanic backarc",yes,"upper greenschist",no,yes,"stratigraphic contact"
761,"High Lake A/B",,,CNNT,Canada,"Northwest Territory",67,22,54,67.3816666666667,-110,-51,-4,-110.851111111111,Bimodal-Mafic,1956,,2.8,4.08,0.57,0.03,0.58,28.2,yes,"Massive, dissemination, stringer. 12 lenses, largest 150 m long, 360 m downdip, 80 m wide. A zone is primarily stringer sulfides located below the more massive B zone of pods and bands. Diabase dike intersects between A and B zones, and B is truncated by granodiorite complex.",Archean,2778,,,,,,,,,,,,,,"Bimodal-mafic in oceanic arc",,,yes,yes,stratigraphic
762,Hixbar,,,PLPN,Philippines,"Rapu-Rapu Island",13,11,10,13.1861111111111,124,11,6,124.185,Mafic,1935,1939,28,3.13,14.65,0,3.4,30.8,no,"Massive, 0.03 km thickness. Gossan at surface.",Paleozoic,360,,0.19,0.06,,0.225,0.125,,,,,,,0,"Pelite-mafic in mature oceanic backarc",yes,greenschist,no,yes,stratigraphic
763,Hoida,Hoydal,,NRWY,Norway,,63,6,53,63.1147222222222,9,44,42,9.745,Mafic,1659,1660,0.1,1.7,7.1,0.084,0.27,36,yes,"Massive, dissemination, stringer, dips 60-86?N. Contains 45% S. Feeder zone of disseminated and stringers of pyrite extend down 300 m below massive ore into underlying greenstone. Oceanic ridge axes (mid-ocean ridge tholeiitic affinity).","Lower Ordovician",480,,0.12,0.03,,0.3,0.25,,,,,,,0,"Mafic in midoceanic ridge",yes,"lower greenschist",yes,yes,stratigraphic
764,"Hood River","Takijuq Lake",,CNNT,Canada,"Northwest Territory",66,3,35,66.0597222222222,-112,-45,-15,-112.754166666667,Felsic,1972,,,,,,,,no,"Massive. No. 10, No. 41, and No. 41A zones. Resource 0.744 million t to 1.8 million t @ 3.66% Cu, 3.74% Zn, 28 g/t Ag, open at depth and laterally.",Archean,2778,,,,,,,,,,,,,,"Siliciclastic-felsic in mature epicontinental arc",,,,,
765,Horne-Quemont,"Murray Group","Horne, Quemont",CNQU,Canada,Quebec,48,15,16,48.2544444444444,-79,0,-41,-79.0113888888889,Bimodal-Mafic,1923,1927,121.8,1.17,0.81,0,5.8,20.4,yes,"Massive, dissemination, stringer.",Archean,2480,0.95,,,,,,"K, Mg enriched, Na, Ca depleted.",,,,,,0,"Bimodal-mafic in oceanic arc",yes,greenschist,no,yes,"contact between andesite flow and rhyolite tuff."
766,Hunter,Beattie,,CNQU,Canada,Quebec,48,33,6,48.5516666666667,-79,-8,-4,-79.1344444444444,Bimodal-Mafic,1928,1956,0.44,1.28,0,0,0,0,yes,Stringer.,Archean,2730,,,,,,,,,,,,,,"Bimodal-mafic in oceanic arc",yes,greenschist,yes,yes,stratigraphic
767,Huntingdon,,,CNQU,Canada,Quebec,45,15,44,45.2622222222222,-72,-19,-45,-72.3291666666667,Mafic,1864,1866,1.82,0.9,0,0,0.1,0.6,no,"Massive, dissemination, veinlets. Ore zones named Old Stopes, A, B, C, and D. Mt. Surface gossan.",Ordovician,500,,0.11,0.003,,,,,,,,,,0,"Mafic in primitive oceanic backarc",yes,"lower greenschist",no,yes,"contact between pillow basalt and diabase."
768,"Hyers Island","Lynx No. 34",,CNMN,Canada,Manitoba,54,45,49,54.7636111111111,-96,-1,-12,-96.02,Felsic,1925,,,,,,,,no,"Massive, dissemination. Pipe-like body plunges steeply NW. Galley and others (2007) classified tectonic setting as bimodal siliciclastic. Resource 0.363 million t @ 2.56% Cu, not fully explored.",Archean,3200,,,,,,,,,,,,,,"Siliciclastic-felsic in mature epicontinental arc",yes,,,,
769,"Iron Dyke",,,USOR,"United States",Oregon,45,1,35,45.0263888888889,-116,-51,-30,-116.858333333333,Felsic,1897,1916,0.51,2.84,0,0,7,29.5,yes,"Stringer. anastomosing network of quartz-chalcopyrite-pyrite veinlets in pipe-like feeder zone.",Permian,270,0.42,0.274,0.183,,,,,,,,,,0,"Siliciclastic-felsic in mature epicontinental arc",yes,"lower greenschist",no,yes,stratigraphic
770,"Iron King",,,USAZ,"United States",Arizona,34,30,5,34.5013888888889,-112,-15,-25,-112.256944444444,Felsic,1880,1906,4.54,0.19,7.34,2.5,4.2,126.5,yes,"Massive en echelon lenses. 12 lenses, 0.004 km thickness, stringer as disseminated pyrite-chalcopyrite in alteration zone in footwall. Surface gossans.",Proterozoic,1640,0.02,0.762,0.03,,,,,,,,,,0,"Siliciclastic-felsic in mature epicontinental arc",yes,greenschist,no,yes,"contact between andesite tuff and rhyolite tuff."
771,"Iron Mountain",,,USCA,"United States",California,40,40,31,40.6752777777778,-122,-31,-40,-122.527777777778,Felsic,1895,1897,7.88,3.13,1.05,0,0.77,25.4,no,"Massive lenses, dissemination.",Devonian,390,0.24,2.29,1.75,,,,,,,,,,0,"Siliciclastic-felsic in mature epicontinental arc",yes,,,,stratigraphic
772,Irsahan,"Irsa Maden, Erenler",,TRKY,Turkey,Artvin,41,17,6,41.285,41,48,50,41.8138888888889,Felsic,1901,,1,0.75,5,0,0,0,yes,"Stringer or thin veins. Analysis yielded 2-4% Cu, 15% Zn (rich in sphalerite).","Upper Cretaceous",80,,,,,,,,,,,,,,"Bimodal-felsic in epicontinental arc",,,,,"stratigraphic contact"
773,Iso-Magusi,"Magusi River","Iso, Magusi",CNQU,Canada,Quebec,48,26,27,48.4408333333333,-79,-22,-21,-79.3725,Bimodal-Mafic,1972,,4.1,1.2,3.55,0,1.1,3.1,no,Massive.,Archean,2700,,0.4,0.5,,,,,,,,,,15,"Bimodal-mafic in oceanic arc",yes,"sub-greenschist (pumpellyite-prehnite)",yes,yes,stratigraphic
774,Israil,"Kovanpinar Koyu",,TRKY,Turkey,Giresun,40,55,42,40.9283333333333,38,52,43,38.8786111111111,Felsic,1957,,3.62,1,0,0,0,0,no,"Massive, tabular, 60 m thick, 300 m below surface, strikes N30?E, dips steeply ESE. Central solid part of orebody contains 30-40% S. Downdip, orebody splits into veins and disappears. Cut by veins of chalcopyrite, strikes N60?W.","Upper Cretaceous",80,,2,0.3,,,,,,,,,,300,"Bimodal-felsic in epicontinental arc",,,,,stratigraphic
775,Iwami,,"Eastern, Eastern No. 1, Eastern No. 3, Western, Western No. 1, Western No. 3",JAPN,Japan,Shimane,35,12,29,35.2080555555556,132,28,27,132.474166666667,Felsic,1951,1966,3.343,0.59,6.4,1.58,0,0,yes,"Massive, stockwork.",Miocene,15,0.00499,0.26,0.11,,,,,,,,,,,"Siliciclastic-felsic in mature epicontinental arc",no,,yes,yes,stratigraphic
777,"Izok Lake",,,CNNT,Canada,"Northwest Territory",65,37,45,65.6291666666667,-112,-47,-45,-112.795833333333,Bimodal-Mafic,1973,,14.8,2.6,12.8,0.27,0,54.2,no,"Massive in 3 zones.",Archean,2730,,,,,,,,,,,,,,"Bimodal-mafic in oceanic arc",yes,"quartz-feldspathic granulite",yes,yes,"contact between andesite-dacite tuffs and rhyolite tuff."
778,"Jabal Sayid",,,SAAR,"Saudi Arabia",,23,50,40,23.8444444444444,40,56,33,40.9425,Bimodal-Mafic,1965,,10.8,1.55,1.21,0,0.3,35,yes,"Massive, stockwork, dissemination. 6 orebodies (1. Main, 2. Eastern, 3. Northeastern, 4. Eastern Stockwork, 5. Northeastern Stocktwork, 6. Northern.",Proterozoic,800,,,,,,,,,,,,,0,"Bimodal-mafic in epicontinental arc",yes,,yes,yes,stratigraphic
779,Jakobsbakken,Sulitjelma,,NRWY,Norway,,67,5,39,67.0941666666667,16,0,2,16.0005555555556,Bimodal-Mafic,>1890,1896,4.5,1.55,2.42,0,0,7.3,no,"Massive elongate sheet, 31% S. 0.003 km thickness. Marginal back-arc rift, ensimatic.",Ordovician,470,0.17,1.49,0.46,,,,,,,,,,,"Bimodal-mafic in oceanic arc",yes,"greenschist to amphibolite",,,stratigraphic
780,Jameland,,,CNON,Canada,Ontario,48,34,45,48.5791666666667,-81,-35,-16,-81.5877777777778,Bimodal-Mafic,1967,1969,0.46,0.99,8.77,0,0.05,4,yes,"Massive, dissemination, stringer, 0.008 km thickness. Tholeiitic andesite and basalt and high-silica rhyolite. Mature back-arc rift basin associated with mantle plume.",Archean,2707,,0.46,0.06,,,,,,,,,,,"Bimodal-mafic in oceanic arc",yes,greenschist,yes,yes,"stratigraphic contact"
781,"Jenny Stone",,,USGA,"United States",Georgia,33,46,56,33.7822222222222,-84,-55,-1,-84.9169444444444,Felsic,>1850,,0.57,1,0.7,0,0,0,no,"Massive, tabular. Surface gossan. Age 800-850.",Proterozoic,850,,,,,,,,,,,,,0,"Bimodal-felsic in epicontinental arc",yes,amphibolite,,,
782,"Jerome (United Verde)",,"United Verde",USAZ,"United States",Arizona,34,45,30,34.7583333333333,-112,-7,-24,-112.123333333333,Felsic,1876,1883,29,5,0.2,0,1.37,49.7,yes,"Massive lenses and pipe-like bodies, stringer of intersecting and branching sulfide veinlets. Pipe-shaped body, exposed at surface. Orebodies: Haynes, North, United Verde, Hermit, U.V.X. Stratigraphy given for the main United Verde orebody.",Proterozoic,1750,,0.43,0.01,,,,"Depleted SiO2, Na2O, CaO, K2O, Rb, Sr, Ba, enriched MgO, Fe2O3, Al2O3, Cs, U, Th, Mn, Sc, Co, REE, Zr, Nb, Y, Ta, Hf, Cu, Zn, Pb, unchanged TiO2",,,,,,0,"Siliciclastic-felsic in mature epicontinental arc",yes,greenschist,yes,yes,"stratigraphic contact"
783,Joannie,,,CNMN,Canada,Manitoba,54,49,42,54.8283333333333,-100,-2,0,-100.033333333333,Bimodal-Mafic,1943,,,,,,,,no,"Massive. Extends down to 243 m depth. Not exposed, beneath Lake Anderson. Resource 0.454 million t @ 1.28% Cu, not fully explored.",Proterozoic,1800,,0.548,0.002,,,,,,,,,,1,"Bimodal-mafic in oceanic arc",yes,greenschist-amphibolite,,,stratigraphic
784,Joliet,Brownlee,,CNQU,Canada,Quebec,48,15,56,48.2655555555556,-79,-1,-28,-79.0244444444444,Bimodal-Mafic,"1925 or 1940",1949,1.25,0.97,0,0,0,0,yes,"Vein, stringer.",Archean,2700,0.04,0.61,0.091,,,,,,,,,,8,"Bimodal-mafic in oceanic arc",yes,greenschist,no,yes,stratigraphic
785,Joma,,,NRWY,Norway,,64,51,11,64.8530555555556,13,53,3,13.8841666666667,Bimodal-Mafic,1911,1972,17,1.27,1.7,0,0,0,no,"Massive, brecciated, disseminated, minor veins, 0.04 km thick. Double arc, dish-shaped body dips steeply SW and W, leveling off to nearly horizontal at 200 m depth, 1,200-1,500 m lateral extension, 55 m wide (plan). Contains 32-35% S. Stratigraphy may be inverted. Back arc marginal basin or off-axes ensialic intraplate incipient rift or ensimatic mid-oceanic ridge (mid-ocean ridge tholeiitic affinity).",Ordovician,470,,1.5,0.055,,,,"Mg and Ca depletion in feeder zone, Fe-Mg-Cu enrichment above feeder zone",,,,,,0,"Bimodal-mafic in oceanic arc",yes,greenschist,no,no,stratigraphic
786,Josselin,Tonnancour,,CNQU,Canada,Quebec,48,51,48,48.8633333333333,-76,-59,-36,-76.9933333333333,Felsic,1967,,,,,,,,no,"Massive. Resource 0.054 million t @ 2.07% Cu, 3.17% Zn, 25 g/t Ag, open along strike. Best 4.4% Cu, 8.2% Zn, 1.2 g/t Au, 51 g/t Ag over 3.7 m.",Archean,2800,,,,,,,,,,,,,0,"Bimodal-felsic in epicontinental arc",yes,amphibolite,no,yes,stratigraphic
787,Joutel,,,CNQU,Canada,Quebec,49,27,12,49.4533333333333,-78,-21,-12,-78.3533333333333,Bimodal-Mafic,1958,1967,1.72,1.65,2.01,0,0,3.5,yes,"Massive, dissemination, folded into V-shape body. Remobilization of sulfides along shears. Chlorite pipe with quartz veins and stockworks.",Archean,2728,,,,,,,,,,,,,,"Bimodal-mafic in oceanic arc",yes,,yes,yes,"stratigraphic along rim of caldera"
788,Kalkanli,"Istala, Kostere Maden, Zigana Maden",,TRKY,Turkey,Gumushane,40,32,40,40.5444444444444,39,13,55,39.2319444444444,Felsic,,,0.19,2.27,0,8,0,116,no,"Massive veins, N60?W, 50 cm wide, exhausted. Sample analysis 2.17-5.8% Cu, 0.16-16.9% Pb, 116-371 g/t Ag.","Upper Cretaceous",80,,,,,,,,,,,,,,"Bimodal-felsic in epicontinental arc",,,,,"stratigraphic contact"
789,"Kam Kotia",,,CNON,Canada,Ontario,48,35,30,48.5916666666667,-81,-36,-24,-81.6066666666667,Bimodal-Mafic,1926,1941,5.84,1.11,1.21,0,0.029,3.5,yes,"Massive, stringer. Series of en-echelon lenses. Stringer zone as irregular pod-like masses of Cu within a much longer network of quartz-carbonate and pyrite-pyrrhotite stringers (10-25% sulfides). Exposed at surface. Tholeiitic andesite and basalt and high-silica rhyolite. Mature back-arc rift basin associated with mantle plume.",Archean,2707,,0.9,0.2,,,,,,,,,,0,"Bimodal-mafic in oceanic arc",yes,greenschist,yes,yes,stratigraphic
790,Kamikita,,"Kaminosawa, Honko, Okunosawa",JAPN,Japan,Aomori,40,44,0,40.7333333333333,140,55,6,140.918333333333,Felsic,1913,1940,2.6,1.3,0.78,0,0,0,yes,"Massive, bedded, fragmental, pipe, stockwork. Surface exposure or near surface. 3 deposits within 500 m are Kaminosawa, Honko, and Ikunosawa. Tateishi deposit, 800 m to the north, is not included. Stratigraphy is given for Kaminosawa deposit.",Miocene,15,,1.25,1.0,,,,,,,,,,0,"Siliciclastic-felsic in mature epicontinental arc",no,,yes,no,"stratigraphic, dome"
791,Kankberg,,,SWDN,Sweden,,64,55,18,64.9216666666667,20,16,5,20.2680555555556,Felsic,1965,1967,1.8,1.4,1.8,0.3,2.6,52,no,"Massive, 0.02 km thickness.",Proterozoic,1950,,0.3,0.07,,,,,,,,,,,"Bimodal-felsic in epicontinental arc",,,,,stratigraphic
792,Kapedhes,,,CYPS,Cyprus,,34,59,19,34.9886111111111,33,15,42,33.2616666666667,Mafic,1955,1955,0.05,0.5,0,0,0,0,yes,"Massive, stockwork. Surface gossan.",Cretaceous,100,,,,,,,,,,,,,0,"Mafic in midoceanic ridge",,,,,stratigraphic
793,Kedtrask,,,SWDN,Sweden,,64,58,0,64.9666666666667,19,50,0,19.8333333333333,Felsic,<1965,1965,0.06,0.25,2.84,0.21,0,0,no,"Massive, 0.02 km thickness, lenses. Age 1900-1825.",Proterozoic,1900,3.2,0.8,0.4,,,,,,,,,,,"Bimodal-felsic in epicontinental arc",,,,,stratigraphic
794,Kistabiche,"Explo Zinc, Consolidated Northern Exploration, Kelly-Desmond","Kelly, Desmond, A, B, B1, C, D, E, E1, G",CNQU,Canada,Quebec,49,26,6,49.435,-78,-19,-56,-78.3322222222222,Felsic,1963,,,,,,,,yes,"Massive, dissemination, stringer. 8 lenses, stacked. Down to 300 m depth. Resource 0.96 million t @ 0.69% Cu, 7.13% Zn, 31 g/t Ag, open at depth.",Archean,2728,,,,,,,,,,,,,30,"Bimodal-felsic in epicontinental arc",yes,,yes,yes,"stratigraphic along rim of caldera"
795,"Key Anacon",,,CNNB,Canada,"New Brunswick",47,26,10,47.4361111111111,-65,-41,-55,-65.6986111111111,Felsic,1880,,,,,,,,no,"Massive, dissemination, 0.06 km thickness, in 3 en echelon zones, two of which are mostly fracture-filled. Zone 2 reserves 1.11 million t @ 0.22$ Cu, 3.47% Pb, 8.41% Zn, 96 g/t Ag; Zone 2 and Zone 3 open at depth.",Ordovician,445,,1.5,0.9,,,,,,,,,,0,"Siliciclastic-felsic in mature epicontinental arc",yes,"lower greenschist",no,yes,stratigraphic
796,Keystone,,,USCA,"United States",California,40,43,10,40.7194444444444,-122,-30,-31,-122.508611111111,Felsic,>1900,1923,0.11,6,8,0,2.09,92.6,no,"Massive tabular bodies, 0.015 km thickness.",Devonian,390,,0.09,,,,,,,,,,,0,"Siliciclastic-felsic in mature epicontinental arc",yes,,,,"contact between middle and upper rhyolite units."
797,Keystone-Union,,"Keystone, Union",USCA,"United States",California,37,59,4,37.9844444444444,-120,-38,-48,-120.646666666667,Felsic,1861,1861,1.2,2.37,0,0,0.01,0.75,yes,"Massive en echelon lenticular bodies, stringer zone of anastomosing veinlets, 0.01 km thickness.",Jurassic,170,,0.37,0.11,,,,,,,,,,0,"Siliciclastic-felsic in mature epicontinental arc",yes,greenschist,no,yes,"stratigraphic in contact between andesite tuff and serpentine."
798,"Khans Creek",,,AUNS,Australia,"New South Wales",-30,-45,-54,-30.765,152,1,52,152.031111111111,Felsic,1971,,0.05,1,25.1,3.5,0,136,no,"Massive lens, strike E-W, dips 60?N sub-parallel to cleavage of slate. Gossan zone.",Permian,270,,0.07,0.01,,,,"Pb >1600 ppm in soil",0.2,0.1,,,,0,"Siliciclastic-felsic in mature epicontinental arc",yes,"sub-greenschist (prehnite-pumpellyite)",no,no,
799,"Kidd Creek",,,CNON,Canada,Ontario,48,41,24,48.69,-81,-21,-56,-81.3655555555556,Bimodal-Mafic,1963,1966,138,2.27,6.44,0.19,0,88,yes,"Massive, stringer, 0.08 km thickness. massive ore is underlain by stringer ore in North orebody. Disseminations in outcrops, massive ore 80 m below surface. Large felsic blocks indicates proximity to a volcanic vent. Mature back-arc rift basin associated with mantle plume. Contains <0.05 g/t Au, 0.15% Sn.",Archean,2716,,0.8,0.24,,,,,,,"Residual gravity 0.2 milligals",0.61,0.15,15,"Bimodal-mafic in oceanic arc",yes,greenschist,yes,yes,stratigraphic
800,Killingdal,,,NRWY,Norway,,62,47,41,62.7947222222222,11,28,23,11.4730555555556,Bimodal-Mafic,1674,1692,3,1.7,5.5,0.4,0.09,24,no,"Massive, 45% S. Main and North orebodies, elongated lens-shaped. Marginal back-arc rift, ensimatic.",Ordovician,470,0.03,,,,,,"Enriched Mg, K, Mn; depleted Na, Ca, Si; unchanged Al, Ti, Fe",,,,,,,"Bimodal-mafic in oceanic arc",yes,"upper greenschist",,,stratigraphic
801,Kimheden,,,SWDN,Sweden,,65,5,19,65.0886111111111,18,35,42,18.595,Felsic,<1965,1965,0.13,1.2,0.1,0,0.3,6,no,"Massive, dissemination, 3 thin en-echelon lenses or ruler-shaped orebodies. 19.6% S.",Proterozoic,1950,0.002,,,,,,,,,,,,,"Bimodal-felsic in epicontinental arc",yes,,,,stratigraphic
802,Kittelgruvan,,,SWDN,Sweden,,65,26,27,65.4408333333333,14,46,25,14.7736111111111,Felsic,,,0.12,0.32,3.2,0.17,0.26,27,no,"Massive, dissemination.",Silurian,430,,,,,,,,,,,,,,"Bimodal-felsic in oceanic arc",yes,,,,
803,Kizilkaya,,,TRKY,Turkey,Giresun,40,49,14,40.8205555555556,38,42,32,38.7088888888889,Felsic,1958,,10,1,1.5,0,0,0,yes,"Stringer, dissemination, massive tabular, mostly feeder zone preserved with massive part largely eroded. 1500 m long, 500 m wide stockwork area contains an elliptical central zone 300m long, 200 m wide. Coarse-grained barite overlies massive lenses. Zn-Pb veins strike N60?W. Assay 527 g/t Ag, 7.2-13.6 g/t Au. Island arc extensional basin.","Upper Cretaceous",80,,1.5,0.5,,,,,,,,,,0,"Bimodal-felsic in epicontinental arc",yes,zeolite,no,yes,stratigraphic
804,Kof,"Kofman, Kof Zone, Farwell Lake",,CNMN,Canada,Manitoba,54,29,6,54.485,-100,-2,-48,-100.046666666667,Bimodal-Mafic,1973,,,,,,,,no,"Massive and disseminated bands. Resource 0.275 million t @ 2.03% Cu, open extent.",Proterozoic,1800,,1.0,,,,,,,,,,,,"Bimodal-mafic in oceanic arc",yes,greenschist,yes,yes,stratigraphic
805,Kokkinoyia,,,CYPS,Cyprus,,35,2,30,35.0416666666667,33,3,45,33.0625,Mafic,1953,1954,0.91,1.5,0.2,0,0,0,yes,"Massive, stockwork. Surface gossan.",Cretaceous,100,,,,,,,,,,,,,0,"Mafic in midoceanic ridge",,,,,"stratigraphic between the Upper and Lower Pillow Lavas."
806,Kokkinopezoula,,,CYPS,Cyprus,,35,2,10,35.0361111111111,33,6,59,33.1163888888889,Mafic,1951,1953,5,0.5,0,0,0,0,yes,"Massive lenticular, stockwork, dissemination, 0.09 km thickness. Surface gossan.",Cretaceous,100,,0.31,0.11,,,,,,,,,,0,"Mafic in midoceanic ridge",,,,,stratigraphic
807,Koprubasi,Inkoy,,TRKY,Turkey,Giresun,41,0,0,41,38,50,46,38.8461111111111,Felsic,1966,,9.87,3.3,2.6,1.8,0,0,yes,"Massive, stockwork, stringer, dissemination, 0.08 km thickness.","Upper Cretaceous",80,,0.3,0.13,,,,,,,,,,0,"Bimodal-felsic in epicontinental arc",,,no,yes,"stratigraphic contact"
808,"Kosaka (Motoyama)",,Motoyama,JAPN,Japan,Akita,40,20,55,40.3486111111111,140,45,38,140.760555555556,Felsic,1861,1898,8,2.2,4.5,0.8,0.8,100,no,"Massive, bedded, 0.12 km thickness.",Miocene,15,,0.7,0.3,,,,,,,,,,0,"Siliciclastic-felsic in mature epicontinental arc",no,sub-greenschist,yes,yes,"stratigraphic, imbricate strike-slip thrust faults"
809,"Kosaka (Uchinotai-Uwamuki)",,"Uchinotai, Uwamuki",JAPN,Japan,Akita,40,19,52,40.3311111111111,140,45,39,140.760833333333,Felsic,1959,1962,19.86,1.99,5.31,1.54,0.88,110,yes,"Massive, dissemination. Stratigraphy given for Uwamuki N. 4 orebody.",Miocene,15,0.33,1.4,0.9,,,,,,,,,,50,"Siliciclastic-felsic in mature epicontinental arc",no,sub-greenschist,yes,yes,stratigraphic
810,Kostere,"Oksuruk Madeni",,TRKY,Turkey,Gumushane,40,35,46,40.5961111111111,39,27,4,39.4511111111111,Felsic,<1968,,0.73,3.23,4.98,3.84,0,0,yes,"Dissemination, stockwork, vein.","Upper Cretaceous",80,,,,,,,,,,,,,,"Bimodal-felsic in epicontinental arc",,,,,stratigraphic
811,Kristineberg,,,SWDN,Sweden,,65,3,52,65.0644444444444,18,33,48,18.5633333333333,Felsic,1918,1940,20.1,1,3.7,0.5,1,35,no,"Massive, dissemination, 2 parallel zones. 25% S. Sulfides possibly remobilized by granite intrusion.",Proterozoic,1950,0.01,,,,,,,,,,,,,"Bimodal-felsic in epicontinental arc",yes,greenschist,no,yes,stratigraphic
812,"Kunitomi (3-4-6)",,"Kunitomi 3, Kunitomi 4, kunitomi 6",JAPN,Japan,Hokkaido,43,0,9,43.0025,140,41,3,140.684166666667,Felsic,1907,1935,0.7,1.21,2.51,0.34,0.54,56,no,Massive.,Miocene,15,0.04,,,,,,,,,,,,12,"Siliciclastic-felsic in mature epicontinental arc",,,,,stratigraphic
813,"Kunitomi (7-8)",,"Kunitomi 7, Kunitomi 8",JAPN,Japan,Hokkaido,42,59,41,42.9947222222222,140,38,34,140.642777777778,Felsic,1969,,0.4,0.85,8.2,1.9,1.05,85.5,yes,"Massive, stockwork. Not exposed, depth unknown.",Miocene,15,0.05,1.2,0.018,,,,,,,,,,,"Siliciclastic-felsic in mature epicontinental arc",no,zeolite,yes,yes,stratigraphic
814,"Kunitomi (1-5-IN-Fuden)",,"Kunitomi 1, Kunitomi 5, Kunitomi 1N, Fuden",JAPN,Japan,Hokkaido,42,59,32,42.9922222222222,140,39,53,140.664722222222,Felsic,1906,1935,2.1,0.85,7.09,0.87,0.4,31.7,yes,"Massive, stockwork. No. 1 orebody was exposed, rest are blind. Stratigraphy given for No. 5 orebody.",Miocene,15,0.08,0.9,0.15,,,,,,,,,,0,"Siliciclastic-felsic in mature epicontinental arc",no,zeolite,yes,yes,stratigraphic
815,"Kure (Asikoy)",,"Asikoy, Toykondu",TRKY,Turkey,Kastamonu,41,48,29,41.8080555555556,33,41,31,33.6919444444444,Mafic,1939,1951,13.6,2.17,0,0,2.2,11,yes,"Massive, 0.02 km thickness, blanket-like; dissemination and stockwork below massive lens. Traced down to 900 m depth. Analysis 47.9% S, 1.9% Cu, 41.8% Fe, 1.37 g/t Au. 0.3% Co, 0.01% Zn, 0.02% Pb. Heavy limonite in gossan. Ophiolite. Asikoy and Toykundu are 200 m apart.",Jurassic,170,,0.1,0.03,,,,"Enriched Fe, P, Mg, depleted Na, K, Ca",,,,,,0,"Mafic in primitive oceanic backarc",yes,"lower greenschist",yes,yes,stratigraphic
816,"Kure (Bakibaba)",,Bakibaba,TRKY,Turkey,Kastamonu,41,47,48,41.7966666666667,33,42,11,33.7030555555556,Mafic,1000,1951,4.4,2.2,0,0,1,0,no,"Massive, 0.04 km thickness, disseminated ore restricted to basalt. Bun or loaf-shaped body with overlying gossan. Oceanic ridge (tholeiitic), ophiolite.",Jurassic,170,,0.12,0.09,,,,"Enriched in FeO, MgO, Al2O3; depleted in Na2O, CaO, SiO2",,,,,,0,"Mafic in primitive oceanic backarc",yes,greenschist,yes,yes,"stratigraphic contact"
817,Kurosawa,,"Hakuba, Daiei, Sanjin, Tadamigawa, Tadami",JAPN,Japan,Fukushima,37,21,10,37.3527777777778,139,19,39,139.3275,Felsic,1850,>1942,4.5,1.6,10.7,1.11,0.3,55,no,"Massive, 5 bodies.",Miocene,15,0.04,,,analcime,4.0,3.5,,,,,,,0,"Siliciclastic-felsic in mature epicontinental arc",no,,no,yes,stratigraphic
818,"Kutcho Creek",,"Kutcho, Sumac West, Esso West",CNBC,Canada,"British Columbia",58,12,19,58.2052777777778,-128,-21,-36,-128.36,Bimodal-Mafic,1968,,29.5,1.43,2.05,0,0.27,22.7,yes,"Dissemination, massive. 3 en echelon lenses: Kutcho, Sumac West, and Esso West. Conformable to bedding, Kutcho has 1400 m length, 27 m thickness and crops out on surface. U-Pb age 244-246. Upper footwall is cut by pyrite-quartz veins which are now thought to be tectonically flattened stockwork veins. Fore-arc oceanic basin adjacent to primitive tholeiitic island arc (alkaline arc magmas).","Late Permian-Early Triassic",243,,3.0,0.3,,,,,,,,,,0,"Bimodal-mafic in epicontinental arc",yes,greenschist,yes,yes,stratigraphic
819,Kutlular,,,TRKY,Turkey,Trabzon,40,52,45,40.8791666666667,40,4,37,40.0769444444444,Felsic,<1971,1986,1.26,2.4,1.5,0.04,0,0,yes,"Massive 0.04 km thickness, dissemination, stockwork 0.1 km thickness. Upper ore body and lower ore body split by a sill. Upper ore body is 150 m long, 80 m wide, 40 m thick. Stringer zone in upper ore body is 100 m thick. Lower ore body is 140 m long, 15 m thick, and is exposed. Fine-grained gypsum occurs as small pockets (few cm diameter) in the hangingwall pyroclastics. Island arc extensional basin.","Upper Cretaceous",80,,0.15,0.08,,0.8,0.6,"Enriched in Fe, K, depleted in Mg, Ca",,,,,,0,"Bimodal-felsic in epicontinental arc",yes,zeolite,no,yes,"contact between dacite tuff breccia and dacite tuff."
820,Kuvarshan,,,TRKY,Turkey,Artvin,41,15,0,41.25,41,49,6,41.8183333333333,Felsic,1912,1937,1.24,1.5,3,0.6,1,25,yes,"Massive, dissemination, lens, 0.02 km thickness.  Overturned sequence.","Upper Cretaceous",80,,0.25,0.25,,,,,,,,,,0,"Bimodal-felsic in epicontinental arc",yes,,no,yes,"stratigraphic contact"
821,Kynousa,,,CYPS,Cyprus,,35,1,47,35.0297222222222,32,30,38,32.5105555555556,Mafic,1950,1951,0.56,2.04,1.7,0,0,0,yes,"Massive, stockwork. Not exposed, unknown depth.",Cretaceous,100,,0.1,0.06,,,,,,,,,,1,"Mafic in midoceanic ridge",yes,,,,stratigraphic
822,"La Joya",,,SPAN,Spain,Huelva,37,45,55,37.7652777777778,-7,-1,-15,-7.02083333333333,Felsic,<1968,1968,2.88,0.5,0.6,0.65,0,0,yes,"Massive, 0.05 km thickness, stringer ores. Overturned sequence.","Upper Devonian-Lower Carboniferous",340,,1.5,0.07,,,,,,,,,,0,"Siliciclastic-felsic in mature epicontinental arc",yes,"lower greenschist",yes,yes,stratigraphic
823,"La Torrera",,,SPAN,Spain,Huelva,37,35,3,37.5841666666667,-6,-55,-42,-6.92833333333333,Felsic,<1933,,1.5,1.39,0,0,0,0,no,Massive.,"Upper Devonian-Lower Carboniferous",340,,,,,,,,,,,,,0,"Siliciclastic-felsic in mature epicontinental arc",yes,"lower greenschist",yes,no,stratigraphic
824,"La Zarza",,,SPAN,Spain,Huelva,37,42,33,37.7091666666667,-6,-51,-9,-6.8525,Felsic,-1500,<1500,164,1.2,2.5,1.1,1.8,47,yes,"Massive, stockwork, 0.15 km thickness. Stockwork ore exposed at the surface, massive ore 50 m below surface. Orebody extends 2700 m E-W strike, 30-200 m horizontal thickness, surface to 550 m depth. Overturned beds. Multiple ductile-brittle shears (south-verging imbrications, sinistral transverse strike slip-faults) resulted in offsets and repeats of the ore horizon.","Upper Devonian-Lower Carboniferous",340,,2.7,0.2,,,,"Isotopic anomaly (18O)",1.3,0.2,,,,0,"Siliciclastic-felsic in mature epicontinental arc",yes,"lower greenschist",yes,no,stratigraphic
825,Lagunazo,,,SPAN,Spain,Huelva,37,37,42,37.6283333333333,-7,-9,-57,-7.16583333333333,Felsic,>1866,n.d,6,0.57,1.5,1.1,1.1,65,yes,"Massive, stockwork.","Upper Devonian-Lower Carboniferous",340,,0.508,0.051,,,,,,,,,,0,"Siliciclastic-felsic in mature epicontinental arc",yes,"lower greenschist",yes,no,stratigraphic
826,Lahanos,,,TRKY,Turkey,Giresun,40,50,30,40.8416666666667,38,41,54,38.6983333333333,Felsic,1956,,11.58,1.33,1.5,0.1,0.5,5.5,yes,"Massive, stockwork, 0.04 km thickness. Oval lens. Two orebodies stratigraphically 20 m apart, sub-horizontal, Strike N50?E. Main ore body is 700 m long, 300 m wide, and 10 m thick. Lower ore body is very irregular in shape.Overall maximum dimensions is 700 m long, 400 m wide, 40 m thick. Younger veins of Cu-Zn and Pb strike N60?W. Contains 40% S. Pyroxene andesite dikes cuts ore body. Island arc extensional basin.","Upper Cretaceous",80,,1.75,1.5,,,,,,,,,,25,"Bimodal-felsic in epicontinental arc",yes,zeolite,no,yes,stratigraphic
827,Norbec,"Lake Dufault, Dufault-Norbec",,CNQU,Canada,Quebec,48,21,6,48.3516666666667,-79,-3,-19,-79.0552777777778,Bimodal-Mafic,"1937 or 1961",1964,4.09,3.2,5.6,0,0.79,44.2,yes,"Massive, dissemination, stringer, 0.0049 km thickness.",Archean,2700,,0.15,0.05,,,,"Enriched Fe2O3, Mn, MgO; depleted Na2O, Cao, SiO2",1.0,0.6,,,,335,"Bimodal-mafic in oceanic arc",yes,"lower greenschist",no,yes,"contact between rhyolite and andesite"
828,Lancha,,,SPAN,Spain,Huelva,37,45,9,37.7525,-6,-58,-5,-6.96805555555556,Felsic,n.d,,0.59,1,0,0,0,0,no,Massive.,Carboniferous,320,,,,,,,,,,,,,,"Siliciclastic-felsic in mature epicontinental arc",yes,"lower greenschist",yes,yes,stratigraphic
829,Langdal,,,SWDN,Sweden,,64,49,29,64.8247222222222,20,13,43,20.2286111111111,Felsic,1937,1967,4,0.14,5.7,1.7,1.9,160,no,"Massive, en echelon lenses.",Proterozoic,1950,0.00346,,,,,,,,,,,,,"Bimodal-felsic in epicontinental arc",yes,amphibolite,no,yes,stratigraphic
830,Langsele,,,SWDN,Sweden,,64,50,47,64.8463888888889,20,16,37,20.2769444444444,Felsic,1926,1956,12,0.6,3.9,0.3,0.9,25,no,"Massive, 5 lenses.",Proterozoic,1950,0.00359,0.4,0.36,,,,,,,,,,,"Bimodal-felsic in epicontinental arc",,,,,stratigraphic
831,Loay,"Pilar, Laooy",,PLPN,Philippines,Capiz,11,27,30,11.4583333333333,122,58,50,122.980555555556,Bimodal-Mafic,<1939,1940,0.12,1.57,0,0,0,0,no,Vein.,Oligocene,30,,,,,,,,,,,,,0,"Bimodal-mafic in oceanic arc",yes,"lower greenschist",no,yes,"fissure zone or stratigraphic"
832,Lasail,,,OMAN,Oman,,24,27,0,24.45,56,26,24,56.44,Mafic,1973,1976,16,2,0,0,0,0,yes,"Massive, stockwork. Surface gossan. Basin or pipe-like. Ophiolite.",Cretaceous,100,,,,,,,,,,,,,,"Mafic in midoceanic ridge",yes,,no,yes,stratigraphic
833,"Lenora-Twin J",,"Lenora, Twin J",CNBC,Canada,"British Columbia",48,51,59,48.8663888888889,-123,-47,-25,-123.790277777778,Felsic,1897,1898,0.6,2.37,3.84,0.37,4.2,117,no,"Massive, two parallel zones. North and South orebodies, 46 m apart.",Devonian,390,,,,,,,,,,,,,,"Bimodal-felsic in epicontinental arc",yes,greenschist,yes,yes,stratigraphic
834,Levi,Levimalmen,,SWDN,Sweden,,65,8,6,65.135,14,25,23,14.4230555555556,Felsic,<1966,,7.42,1.16,1.6,0.1,0.17,24,no,"Massive, dissemination. Ruler-shaped. Ensimatic back-arc rift (arc tholeiitic or MORB affinity).",Proterozoic,1950,,,,,,,"Enrichment of K, Mg, S, base metals, trace metals, depletion of Na in ore horizon; enrichment of Na, depletion of K, Mg, Fe, Ca in pre-ore rocks; enrichment of Na, depletion of K in post-ore rocks.",,,,,,10,"Bimodal-felsic in oceanic arc",yes,greenschist,yes,yes,"contact between tuffaceous sediments and quartz keratophyre tuff."
835,Lillebo,Stord,,NRWY,Norway,,59,43,34,59.7261111111111,5,26,13,5.43694444444444,Bimodal-Mafic,1865,1865,9,0.1,0.1,0.1,0,0,no,"Massive, dissemination plates, 23% S. Marginal back-arc rift, ensimatic.",Silurian,430,,,,,,,,,,,,,,"Bimodal-mafic in oceanic arc",yes,greenschist,,,stratigraphic
836,Limni,,,CYPS,Cyprus,,35,1,29,35.0247222222222,32,29,28,32.4911111111111,Mafic,-3000,1937,4.22,1.4,0,0,0,0,yes,"Stockwork. networks, lenticular mass, dissmination. Massive zone was eroded off. Surface gossan.",Cretaceous,100,,,,,,,,,,,,,0,"Mafic in midoceanic ridge",,,,,stratigraphic
837,Lingwick,,,CNQU,Canada,Quebec,45,39,27,45.6575,-71,-23,0,-71.3833333333333,Felsic,1968,,0.32,0.6,6,0,0,17,no,Massive.,Ordovician,470,,,,,,,,,,,,,,"Bimodal-felsic in oceanic arc",,,,,"contact between rhyolite tuff-agglomerate and andesite."
838,"Little Bay",,,CNNF,Canada,Newfoundland,49,35,52,49.5977777777778,-55,-56,-20,-55.9388888888889,Mafic,1877,1878,2.95,1.36,0,0,0,0,yes,"Massive, dissemination, stringer. Mined to 427 m depth.",Ordovician,500,0.0016,0.274,0.008,,,,,,,,,,,"Mafic in primitive oceanic backarc",yes,greenschist,no,yes,stratigraphic
